[
  {
    "uri": "http://irail.be/stations/NMBS/008400319",
    "name": "'s Hertogenbosch",
    "alternative_fr": "",
    "alternative_nl": "",
    "alternative_de": "",
    "alternative_en": "",
    "longitude": "5.29427800",
    "latitude": "51.6904200",
    "country_code": "nl"
  },
  {
    "uri": "http://irail.be/stations/NMBS/008015345",
    "name": "Aachen Hbf",
    "alternative_fr": "Aix-la-Chapelle Hbf",
    "alternative_nl": "Aken Hbf",
    "alternative_de": "",
    "alternative_en": "",
    "longitude": "6.105275",
    "latitude": "50.770832",
    "country_code": "de"
  },
  {
    "uri": "http://irail.be/stations/NMBS/008895000",
    "name": "Aalst",
    "alternative_fr": "Alost",
    "alternative_nl": "",
    "alternative_de": "",
    "alternative_en": "",
    "longitude": "4.039653",
    "latitude": "50.942813",
    "country_code": "be"
  },
  {
    "uri": "http://irail.be/stations/NMBS/008895125",
    "name": "Aalst-Kerrebroek",
    "alternative_fr": "Alost Kerrebroek",
    "alternative_nl": "",
    "alternative_de": "",
    "alternative_en": "",
    "longitude": "4.024407",
    "latitude": "50.948377",
    "country_code": "be"
  },
  {
    "uri": "http://irail.be/stations/NMBS/008891140",
    "name": "Aalter",
    "alternative_fr": "",
    "alternative_nl": "",
    "alternative_de": "",
    "alternative_en": "",
    "longitude": "3.447848",
    "latitude": "51.092295",
    "country_code": "be"
  },
  {
    "uri": "http://irail.be/stations/NMBS/008833209",
    "name": "Aarschot",
    "alternative_fr": "",
    "alternative_nl": "",
    "alternative_de": "",
    "alternative_en": "",
    "longitude": "4.824043",
    "latitude": "50.984406",
    "country_code": "be"
  },
  {
    "uri": "http://irail.be/stations/NMBS/008892288",
    "name": "Aarsele",
    "alternative_fr": "",
    "alternative_nl": "",
    "alternative_de": "",
    "alternative_en": "",
    "longitude": "3.418363",
    "latitude": "50.98446",
    "country_code": "be"
  },
  {
    "uri": "http://irail.be/stations/NMBS/008886546",
    "name": "Acren",
    "alternative_fr": "",
    "alternative_nl": "Akren",
    "alternative_de": "",
    "alternative_en": "",
    "longitude": "3.847086",
    "latitude": "50.733095",
    "country_code": "be"
  },
  {
    "uri": "http://irail.be/stations/NMBS/008778127",
    "name": "Agde",
    "alternative_fr": "",
    "alternative_nl": "",
    "alternative_de": "",
    "alternative_en": "",
    "longitude": "3.465800",
    "latitude": "43.317498",
    "country_code": "fr"
  },
  {
    "uri": "http://irail.be/stations/NMBS/008774176",
    "name": "Aime-la-Plagne",
    "alternative_fr": "",
    "alternative_nl": "",
    "alternative_de": "",
    "alternative_en": "",
    "longitude": "6.648394",
    "latitude": "45.554202",
    "country_code": "fr"
  },
  {
    "uri": "http://irail.be/stations/NMBS/008874583",
    "name": "Aiseau",
    "alternative_fr": "",
    "alternative_nl": "",
    "alternative_de": "",
    "alternative_en": "",
    "longitude": "4.584552",
    "latitude": "50.429529",
    "country_code": "be"
  },
  {
    "uri": "http://irail.be/stations/NMBS/008731901",
    "name": "Aix-en-Provence TGV",
    "alternative_fr": "",
    "alternative_nl": "",
    "alternative_de": "",
    "alternative_en": "",
    "longitude": "5.43333300",
    "latitude": "43.5333300",
    "country_code": "fr"
  },
  {
    "uri": "http://irail.be/stations/NMBS/008015199",
    "name": "Aachen West",
    "alternative_fr": "Aix-la-Chapelle Ouest",
    "alternative_nl": "Aken West",
    "alternative_de": "",
    "alternative_en": "",
    "longitude": "6.07055000",
    "latitude": "50.7807800",
    "country_code": "de"
  },
  {
    "uri": "http://irail.be/stations/NMBS/008774164",
    "name": "Albertville",
    "alternative_fr": "",
    "alternative_nl": "",
    "alternative_de": "",
    "alternative_en": "",
    "longitude": "6.383617",
    "latitude": "45.673624",
    "country_code": "fr"
  },
  {
    "uri": "http://irail.be/stations/NMBS/008831039",
    "name": "Alken",
    "alternative_fr": "",
    "alternative_nl": "",
    "alternative_de": "",
    "alternative_en": "",
    "longitude": "5.292866",
    "latitude": "50.886837",
    "country_code": "be"
  },
  {
    "uri": "http://irail.be/stations/NMBS/008400081",
    "name": "Almere Buiten",
    "alternative_fr": "",
    "alternative_nl": "",
    "alternative_de": "",
    "alternative_en": "",
    "longitude": "5.277962",
    "latitude": "52.394175",
    "country_code": "nl"
  },
  {
    "uri": "http://irail.be/stations/NMBS/008400080",
    "name": "Almere Centrum",
    "alternative_fr": "",
    "alternative_nl": "",
    "alternative_de": "",
    "alternative_en": "",
    "longitude": "5.217778",
    "latitude": "52.375",
    "country_code": "nl"
  },
  {
    "uri": "http://irail.be/stations/NMBS/008843331",
    "name": "Amay",
    "alternative_fr": "",
    "alternative_nl": "",
    "alternative_de": "",
    "alternative_en": "",
    "longitude": "5.32049",
    "latitude": "50.546011",
    "country_code": "be"
  },
  {
    "uri": "http://irail.be/stations/NMBS/008843323",
    "name": "Ampsin",
    "alternative_fr": "",
    "alternative_nl": "",
    "alternative_de": "",
    "alternative_en": "",
    "longitude": "5.289729",
    "latitude": "50.539215",
    "country_code": "be"
  },
  {
    "uri": "http://irail.be/stations/NMBS/008400058",
    "name": "Amsterdam CS",
    "alternative_fr": "",
    "alternative_nl": "",
    "alternative_de": "",
    "alternative_en": "",
    "longitude": "4.90063200",
    "latitude": "52.3790800",
    "country_code": "nl"
  },
  {
    "uri": "http://irail.be/stations/NMBS/008400061",
    "name": "Amsterdam Zuid",
    "alternative_fr": "",
    "alternative_nl": "",
    "alternative_de": "",
    "alternative_en": "Amsterdam South",
    "longitude": "4.871946",
    "latitude": "52.338865",
    "country_code": "nl"
  },
  {
    "uri": "http://irail.be/stations/NMBS/008863404",
    "name": "Andenne",
    "alternative_fr": "",
    "alternative_nl": "",
    "alternative_de": "",
    "alternative_en": "",
    "longitude": "5.094699",
    "latitude": "50.496759",
    "country_code": "be"
  },
  {
    "uri": "http://irail.be/stations/NMBS/008811940",
    "name": "Anderlecht",
    "alternative_fr": "",
    "alternative_nl": "",
    "alternative_de": "",
    "alternative_en": "",
    "longitude": "4.29180000",
    "latitude": "50.8179000",
    "country_code": "be"
  },
  {
    "uri": "http://irail.be/stations/NMBS/008842002",
    "name": "Angleur",
    "alternative_fr": "",
    "alternative_nl": "",
    "alternative_de": "",
    "alternative_en": "",
    "longitude": "5.599695",
    "latitude": "50.613152",
    "country_code": "be"
  },
  {
    "uri": "http://irail.be/stations/NMBS/008728685",
    "name": "Annappes",
    "alternative_fr": "",
    "alternative_nl": "",
    "alternative_de": "",
    "alternative_en": "",
    "longitude": "3.15000000",
    "latitude": "50.6333330",
    "country_code": "fr"
  },
  {
    "uri": "http://irail.be/stations/NMBS/008841202",
    "name": "Ans",
    "alternative_fr": "",
    "alternative_nl": "",
    "alternative_de": "",
    "alternative_en": "",
    "longitude": "5.509704",
    "latitude": "50.661208",
    "country_code": "be"
  },
  {
    "uri": "http://irail.be/stations/NMBS/008863818",
    "name": "Anseremme",
    "alternative_fr": "",
    "alternative_nl": "",
    "alternative_de": "",
    "alternative_en": "",
    "longitude": "4.90553",
    "latitude": "50.238023",
    "country_code": "be"
  },
  {
    "uri": "http://irail.be/stations/NMBS/008775767",
    "name": "Antibes",
    "alternative_fr": "",
    "alternative_nl": "",
    "alternative_de": "",
    "alternative_en": "",
    "longitude": "7.1201361",
    "latitude": "43.586618",
    "country_code": "fr"
  },
  {
    "uri": "http://irail.be/stations/NMBS/008885522",
    "name": "Antoing",
    "alternative_fr": "",
    "alternative_nl": "",
    "alternative_de": "",
    "alternative_en": "",
    "longitude": "3.451309",
    "latitude": "50.569626",
    "country_code": "be"
  },
  {
    "uri": "http://irail.be/stations/NMBS/008821121",
    "name": "Antwerpen-Berchem",
    "alternative_fr": "Anvers-Berchem",
    "alternative_nl": "",
    "alternative_de": "",
    "alternative_en": "Antwerp-Berchem",
    "longitude": "4.432221",
    "latitude": "51.19923",
    "country_code": "be"
  },
  {
    "uri": "http://irail.be/stations/NMBS/008821006",
    "name": "Antwerpen-Centraal",
    "alternative_fr": "Anvers-Central",
    "alternative_nl": "",
    "alternative_de": "",
    "alternative_en": "Antwerp-Central",
    "longitude": "4.421101",
    "latitude": "51.2172",
    "country_code": "be"
  },
  {
    "uri": "http://irail.be/stations/NMBS/008821030",
    "name": "Antwerpen-Dam",
    "alternative_fr": "Anvers-Dam",
    "alternative_nl": "Antwerpen-Dam",
    "alternative_de": "",
    "alternative_en": "",
    "longitude": "4.42623800",
    "latitude": "51.2319910",
    "country_code": "be"
  },
  {
    "uri": "http://irail.be/stations/NMBS/008821048",
    "name": "Antwerpen-Haven",
    "alternative_fr": "Anvers-Haven",
    "alternative_nl": "",
    "alternative_de": "",
    "alternative_en": "Antwerp-Haven",
    "longitude": "4.379086",
    "latitude": "51.289968",
    "country_code": "be"
  },
  {
    "uri": "http://irail.be/stations/NMBS/008821063",
    "name": "Antwerpen-Luchtbal",
    "alternative_fr": "Anvers-Luchtbal",
    "alternative_nl": "",
    "alternative_de": "",
    "alternative_en": "Antwerp-Luchtbal",
    "longitude": "4.425029",
    "latitude": "51.244132",
    "country_code": "be"
  },
  {
    "uri": "http://irail.be/stations/NMBS/008821089",
    "name": "Antwerpen-Noorderdokken",
    "alternative_fr": "Anvers-Noorderdokken",
    "alternative_nl": "",
    "alternative_de": "",
    "alternative_en": "Antwerp-Noorderdokken",
    "longitude": "4.427906",
    "latitude": "51.261643",
    "country_code": "be"
  },
  {
    "uri": "http://irail.be/stations/NMBS/008821022",
    "name": "Antwerpen-Oost",
    "alternative_fr": "Anvers-Est",
    "alternative_nl": "",
    "alternative_de": "",
    "alternative_en": "Antwerp-East",
    "longitude": "4.436392",
    "latitude": "51.207357",
    "country_code": "be"
  },
  {
    "uri": "http://irail.be/stations/NMBS/008821196",
    "name": "Antwerpen-Zuid",
    "alternative_fr": "Anvers-Sud",
    "alternative_nl": "",
    "alternative_de": "",
    "alternative_en": "Antwerp-South",
    "longitude": "4.390259",
    "latitude": "51.197828",
    "country_code": "be"
  },
  {
    "uri": "http://irail.be/stations/NMBS/008892734",
    "name": "Anzegem",
    "alternative_fr": "",
    "alternative_nl": "",
    "alternative_de": "",
    "alternative_en": "",
    "longitude": "3.495014",
    "latitude": "50.826385",
    "country_code": "be"
  },
  {
    "uri": "http://irail.be/stations/NMBS/008895745",
    "name": "Appelterre",
    "alternative_fr": "",
    "alternative_nl": "",
    "alternative_de": "",
    "alternative_en": "",
    "longitude": "3.972108",
    "latitude": "50.813063",
    "country_code": "be"
  },
  {
    "uri": "http://irail.be/stations/NMBS/008814472",
    "name": "Arcaden/Arcades",
    "alternative_fr": "Arcades",
    "alternative_nl": "Arcaden",
    "alternative_de": "Arcades",
    "alternative_en": "Arcaden",
    "longitude": "4.398333",
    "latitude": "50.809722",
    "country_code": "be"
  },
  {
    "uri": "http://irail.be/stations/NMBS/008811759",
    "name": "Archennes",
    "alternative_fr": "",
    "alternative_nl": "Eerken",
    "alternative_de": "",
    "alternative_en": "",
    "longitude": "4.662444",
    "latitude": "50.754345",
    "country_code": "be"
  },
  {
    "uri": "http://irail.be/stations/NMBS/008866001",
    "name": "Arlon",
    "alternative_fr": "",
    "alternative_nl": "Aarlen",
    "alternative_de": "Arel",
    "alternative_en": "",
    "longitude": "5.809971",
    "latitude": "49.68053",
    "country_code": "be"
  },
  {
    "uri": "http://irail.be/stations/NMBS/008734201",
    "name": "Arras",
    "alternative_fr": "",
    "alternative_nl": "",
    "alternative_de": "",
    "alternative_en": "",
    "longitude": "2.78169000",
    "latitude": "50.2868300",
    "country_code": "fr"
  },
  {
    "uri": "http://irail.be/stations/NMBS/008728686",
    "name": "Ascq",
    "alternative_fr": "",
    "alternative_nl": "",
    "alternative_de": "",
    "alternative_en": "",
    "longitude": "3.166666",
    "latitude": "50.616666",
    "country_code": "fr"
  },
  {
    "uri": "http://irail.be/stations/NMBS/008812070",
    "name": "Asse",
    "alternative_fr": "",
    "alternative_nl": "",
    "alternative_de": "",
    "alternative_en": "",
    "longitude": "4.207985",
    "latitude": "50.906488",
    "country_code": "be"
  },
  {
    "uri": "http://irail.be/stations/NMBS/008864931",
    "name": "Assesse",
    "alternative_fr": "",
    "alternative_nl": "",
    "alternative_de": "",
    "alternative_en": "",
    "longitude": "5.022839",
    "latitude": "50.368133",
    "country_code": "be"
  },
  {
    "uri": "http://irail.be/stations/NMBS/008886009",
    "name": "Ath",
    "alternative_fr": "",
    "alternative_nl": "Aat",
    "alternative_de": "",
    "alternative_en": "",
    "longitude": "3.777429",
    "latitude": "50.626932",
    "country_code": "be"
  },
  {
    "uri": "http://irail.be/stations/NMBS/008866605",
    "name": "Athus",
    "alternative_fr": "",
    "alternative_nl": "",
    "alternative_de": "Athem",
    "alternative_en": "",
    "longitude": "5.828947",
    "latitude": "49.563346",
    "country_code": "be"
  },
  {
    "uri": "http://irail.be/stations/NMBS/008869047",
    "name": "Athus-Frontiere",
    "alternative_fr": "",
    "alternative_nl": "",
    "alternative_de": "",
    "alternative_en": "",
    "longitude": "5.82493200",
    "latitude": "49.5517490",
    "country_code": "be"
  },
  {
    "uri": "http://irail.be/stations/NMBS/008866654",
    "name": "Aubange",
    "alternative_fr": "",
    "alternative_nl": "",
    "alternative_de": "",
    "alternative_en": "",
    "longitude": "5.79806",
    "latitude": "49.564093",
    "country_code": "be"
  },
  {
    "uri": "http://irail.be/stations/NMBS/008869088",
    "name": "Aubange-Frontiere-Luxembourg",
    "alternative_fr": "",
    "alternative_nl": "",
    "alternative_de": "",
    "alternative_en": "",
    "longitude": "5.82630700",
    "latitude": "49.5494550",
    "country_code": "be"
  },
  {
    "uri": "http://irail.be/stations/NMBS/008729560",
    "name": "Aulnoye-Aymeries",
    "alternative_fr": "",
    "alternative_nl": "",
    "alternative_de": "",
    "alternative_en": "",
    "longitude": "3.84341300",
    "latitude": "50.1974400",
    "country_code": "fr"
  },
  {
    "uri": "http://irail.be/stations/NMBS/008874716",
    "name": "Auvelais",
    "alternative_fr": "",
    "alternative_nl": "",
    "alternative_de": "",
    "alternative_en": "",
    "longitude": "4.630532",
    "latitude": "50.449197",
    "country_code": "be"
  },
  {
    "uri": "http://irail.be/stations/NMBS/008731896",
    "name": "Avignon TGV",
    "alternative_fr": "",
    "alternative_nl": "",
    "alternative_de": "",
    "alternative_en": "",
    "longitude": "4.81666700",
    "latitude": "43.9500000",
    "country_code": "fr"
  },
  {
    "uri": "http://irail.be/stations/NMBS/008864352",
    "name": "Aye",
    "alternative_fr": "",
    "alternative_nl": "",
    "alternative_de": "",
    "alternative_en": "",
    "longitude": "5.301091",
    "latitude": "50.224135",
    "country_code": "be"
  },
  {
    "uri": "http://irail.be/stations/NMBS/008842754",
    "name": "Aywaille",
    "alternative_fr": "",
    "alternative_nl": "",
    "alternative_de": "",
    "alternative_en": "",
    "longitude": "5.672499",
    "latitude": "50.472938",
    "country_code": "be"
  },
  {
    "uri": "http://irail.be/stations/NMBS/008727149",
    "name": "Aéroport Charles-de-Gaulle TGV",
    "alternative_fr": "",
    "alternative_nl": "",
    "alternative_de": "",
    "alternative_en": "",
    "longitude": "2.571123",
    "latitude": "49.003955",
    "country_code": "fr"
  },
  {
    "uri": "http://irail.be/stations/NMBS/008822160",
    "name": "Baasrode-Zuid",
    "alternative_fr": "Baesrode-Sud",
    "alternative_nl": "",
    "alternative_de": "",
    "alternative_en": "",
    "longitude": "4.153492",
    "latitude": "51.019437",
    "country_code": "be"
  },
  {
    "uri": "http://irail.be/stations/NMBS/008728687",
    "name": "Baisieux",
    "alternative_fr": "",
    "alternative_nl": "",
    "alternative_de": "",
    "alternative_en": "",
    "longitude": "3.25000000",
    "latitude": "50.6000000",
    "country_code": "fr"
  },
  {
    "uri": "http://irail.be/stations/NMBS/008895257",
    "name": "Balegem-Dorp",
    "alternative_fr": "",
    "alternative_nl": "",
    "alternative_de": "",
    "alternative_en": "",
    "longitude": "3.791425",
    "latitude": "50.919612",
    "country_code": "be"
  },
  {
    "uri": "http://irail.be/stations/NMBS/008895240",
    "name": "Balegem-Zuid",
    "alternative_fr": "",
    "alternative_nl": "",
    "alternative_de": "",
    "alternative_en": "",
    "longitude": "3.80587",
    "latitude": "50.90051",
    "country_code": "be"
  },
  {
    "uri": "http://irail.be/stations/NMBS/008832045",
    "name": "Balen",
    "alternative_fr": "Baelen",
    "alternative_nl": "",
    "alternative_de": "",
    "alternative_en": "",
    "longitude": "5.164986",
    "latitude": "51.169099",
    "country_code": "be"
  },
  {
    "uri": "http://irail.be/stations/NMBS/008895463",
    "name": "Bambrugge",
    "alternative_fr": "",
    "alternative_nl": "",
    "alternative_de": "",
    "alternative_en": "",
    "longitude": "3.935711",
    "latitude": "50.913769",
    "country_code": "be"
  },
  {
    "uri": "http://irail.be/stations/NMBS/008864451",
    "name": "Barvaux",
    "alternative_fr": "",
    "alternative_nl": "",
    "alternative_de": "",
    "alternative_en": "",
    "longitude": "5.501542",
    "latitude": "50.349417",
    "country_code": "be"
  },
  {
    "uri": "http://irail.be/stations/NMBS/008843430",
    "name": "Bas-Oha",
    "alternative_fr": "",
    "alternative_nl": "",
    "alternative_de": "",
    "alternative_en": "",
    "longitude": "5.190937",
    "latitude": "50.52263",
    "country_code": "be"
  },
  {
    "uri": "http://irail.be/stations/NMBS/008200718",
    "name": "Bascharage-Sanem",
    "alternative_fr": "",
    "alternative_nl": "",
    "alternative_de": "",
    "alternative_en": "",
    "longitude": "5.92374200",
    "latitude": "49.5583600",
    "country_code": "lu"
  },
  {
    "uri": "http://irail.be/stations/NMBS/008500010",
    "name": "Basel",
    "alternative_fr": "",
    "alternative_nl": "Bazel",
    "alternative_de": "",
    "alternative_en": "",
    "longitude": "7.590716",
    "latitude": "47.547408",
    "country_code": "ch"
  },
  {
    "uri": "http://irail.be/stations/NMBS/008811734",
    "name": "Basse-Wavre",
    "alternative_fr": "",
    "alternative_nl": "",
    "alternative_de": "",
    "alternative_en": "",
    "longitude": "4.621651",
    "latitude": "50.72442",
    "country_code": "be"
  },
  {
    "uri": "http://irail.be/stations/NMBS/008865128",
    "name": "Bastogne-Nord",
    "alternative_fr": "",
    "alternative_nl": "Bastenaken-Noord",
    "alternative_de": "Bastenach-Nord",
    "alternative_en": "",
    "longitude": "5.720744",
    "latitude": "50.006919",
    "country_code": "be"
  },
  {
    "uri": "http://irail.be/stations/NMBS/008865110",
    "name": "Bastogne-Sud",
    "alternative_fr": "",
    "alternative_nl": "Bastenaken-Zuid",
    "alternative_de": "Bastenach-Süd",
    "alternative_en": "",
    "longitude": "5.709858",
    "latitude": "49.999737",
    "country_code": "be"
  },
  {
    "uri": "http://irail.be/stations/NMBS/008863867",
    "name": "Beauraing",
    "alternative_fr": "",
    "alternative_nl": "",
    "alternative_de": "",
    "alternative_en": "",
    "longitude": "4.95684",
    "latitude": "50.11443",
    "country_code": "be"
  },
  {
    "uri": "http://irail.be/stations/NMBS/008891124",
    "name": "Beernem",
    "alternative_fr": "",
    "alternative_nl": "",
    "alternative_de": "",
    "alternative_en": "",
    "longitude": "3.329892",
    "latitude": "51.128009",
    "country_code": "be"
  },
  {
    "uri": "http://irail.be/stations/NMBS/008814423",
    "name": "Beersel",
    "alternative_fr": "",
    "alternative_nl": "",
    "alternative_de": "",
    "alternative_en": "",
    "longitude": "4.302605",
    "latitude": "50.766616",
    "country_code": "be"
  },
  {
    "uri": "http://irail.be/stations/NMBS/008894151",
    "name": "Beervelde",
    "alternative_fr": "",
    "alternative_nl": "",
    "alternative_de": "",
    "alternative_en": "",
    "longitude": "3.879384",
    "latitude": "51.08753",
    "country_code": "be"
  },
  {
    "uri": "http://irail.be/stations/NMBS/008821865",
    "name": "Begijnendijk",
    "alternative_fr": "",
    "alternative_nl": "",
    "alternative_de": "",
    "alternative_en": "",
    "longitude": "4.800338",
    "latitude": "51.021972",
    "country_code": "be"
  },
  {
    "uri": "http://irail.be/stations/NMBS/008871183",
    "name": "Beignée",
    "alternative_fr": "",
    "alternative_nl": "",
    "alternative_de": "",
    "alternative_en": "",
    "longitude": "4.406305",
    "latitude": "50.333893",
    "country_code": "be"
  },
  {
    "uri": "http://irail.be/stations/NMBS/008891157",
    "name": "Bellem",
    "alternative_fr": "",
    "alternative_nl": "",
    "alternative_de": "",
    "alternative_en": "",
    "longitude": "3.487374",
    "latitude": "51.083908",
    "country_code": "be"
  },
  {
    "uri": "http://irail.be/stations/NMBS/008894433",
    "name": "Belsele",
    "alternative_fr": "",
    "alternative_nl": "",
    "alternative_de": "",
    "alternative_en": "",
    "longitude": "4.088608",
    "latitude": "51.150994",
    "country_code": "be"
  },
  {
    "uri": "http://irail.be/stations/NMBS/008832235",
    "name": "Beringen",
    "alternative_fr": "",
    "alternative_nl": "",
    "alternative_de": "",
    "alternative_en": "",
    "longitude": "5.235892",
    "latitude": "51.050603",
    "country_code": "be"
  },
  {
    "uri": "http://irail.be/stations/NMBS/008821816",
    "name": "Berlaar",
    "alternative_fr": "",
    "alternative_nl": "",
    "alternative_de": "",
    "alternative_en": "",
    "longitude": "4.638811",
    "latitude": "51.113662",
    "country_code": "be"
  },
  {
    "uri": "http://irail.be/stations/NMBS/008065969",
    "name": "Berlin Hbf",
    "alternative_fr": "",
    "alternative_nl": "",
    "alternative_de": "",
    "alternative_en": "",
    "longitude": "13.369548",
    "latitude": "52.525589",
    "country_code": "de"
  },
  {
    "uri": "http://irail.be/stations/NMBS/008032318",
    "name": "Berlin Lichtenberg",
    "alternative_fr": "",
    "alternative_nl": "",
    "alternative_de": "",
    "alternative_en": "",
    "longitude": "13.4965",
    "latitude": "52.5097",
    "country_code": "de"
  },
  {
    "uri": "http://irail.be/stations/NMBS/008007817",
    "name": "Berlin Ostbahnhof",
    "alternative_fr": "",
    "alternative_nl": "",
    "alternative_de": "",
    "alternative_en": "",
    "longitude": "13.4500000",
    "latitude": "52.5166700",
    "country_code": "de"
  },
  {
    "uri": "http://irail.be/stations/NMBS/008200510",
    "name": "Bertrange Strassen",
    "alternative_fr": "",
    "alternative_nl": "",
    "alternative_de": "",
    "alternative_en": "",
    "longitude": "6.060601",
    "latitude": "49.613002",
    "country_code": "lu"
  },
  {
    "uri": "http://irail.be/stations/NMBS/008865300",
    "name": "Bertrix",
    "alternative_fr": "",
    "alternative_nl": "",
    "alternative_de": "",
    "alternative_en": "",
    "longitude": "5.267193",
    "latitude": "49.852835",
    "country_code": "be"
  },
  {
    "uri": "http://irail.be/stations/NMBS/008873320",
    "name": "Berzée",
    "alternative_fr": "",
    "alternative_nl": "",
    "alternative_de": "",
    "alternative_en": "",
    "longitude": "4.405909",
    "latitude": "50.285603",
    "country_code": "be"
  },
  {
    "uri": "http://irail.be/stations/NMBS/008861424",
    "name": "Beuzet",
    "alternative_fr": "",
    "alternative_nl": "",
    "alternative_de": "",
    "alternative_en": "",
    "longitude": "4.748533",
    "latitude": "50.534208",
    "country_code": "be"
  },
  {
    "uri": "http://irail.be/stations/NMBS/008894748",
    "name": "Beveren",
    "alternative_fr": "",
    "alternative_nl": "",
    "alternative_de": "",
    "alternative_en": "",
    "longitude": "4.25952",
    "latitude": "51.208336",
    "country_code": "be"
  },
  {
    "uri": "http://irail.be/stations/NMBS/008832227",
    "name": "Beverlo",
    "alternative_fr": "",
    "alternative_nl": "",
    "alternative_de": "",
    "alternative_en": "",
    "longitude": "5.234373",
    "latitude": "51.087719",
    "country_code": "be"
  },
  {
    "uri": "http://irail.be/stations/NMBS/008811718",
    "name": "Bierges-Walibi",
    "alternative_fr": "",
    "alternative_nl": "",
    "alternative_de": "",
    "alternative_en": "",
    "longitude": "4.594746",
    "latitude": "50.707772",
    "country_code": "be"
  },
  {
    "uri": "http://irail.be/stations/NMBS/008841319",
    "name": "Bierset-Awans",
    "alternative_fr": "",
    "alternative_nl": "",
    "alternative_de": "",
    "alternative_en": "",
    "longitude": "5.460551",
    "latitude": "50.65861",
    "country_code": "be"
  },
  {
    "uri": "http://irail.be/stations/NMBS/008831138",
    "name": "Bilzen",
    "alternative_fr": "",
    "alternative_nl": "",
    "alternative_de": "",
    "alternative_en": "",
    "longitude": "5.50938",
    "latitude": "50.868643",
    "country_code": "be"
  },
  {
    "uri": "http://irail.be/stations/NMBS/008882362",
    "name": "Binche",
    "alternative_fr": "",
    "alternative_nl": "",
    "alternative_de": "",
    "alternative_en": "",
    "longitude": "4.172451",
    "latitude": "50.408764",
    "country_code": "be"
  },
  {
    "uri": "http://irail.be/stations/NMBS/008896388",
    "name": "Bissegem",
    "alternative_fr": "",
    "alternative_nl": "",
    "alternative_de": "",
    "alternative_en": "",
    "longitude": "3.224205",
    "latitude": "50.825845",
    "country_code": "be"
  },
  {
    "uri": "http://irail.be/stations/NMBS/008889045",
    "name": "Blandain-Frontiere",
    "alternative_fr": "",
    "alternative_nl": "",
    "alternative_de": "",
    "alternative_en": "",
    "longitude": "3.26373000",
    "latitude": "50.6174900",
    "country_code": "be"
  },
  {
    "uri": "http://irail.be/stations/NMBS/008891405",
    "name": "Blankenberge",
    "alternative_fr": "",
    "alternative_nl": "",
    "alternative_de": "",
    "alternative_en": "",
    "longitude": "3.133864",
    "latitude": "51.312432",
    "country_code": "be"
  },
  {
    "uri": "http://irail.be/stations/NMBS/008861531",
    "name": "Blanmont",
    "alternative_fr": "",
    "alternative_nl": "",
    "alternative_de": "",
    "alternative_en": "",
    "longitude": "4.636393",
    "latitude": "50.619453",
    "country_code": "be"
  },
  {
    "uri": "http://irail.be/stations/NMBS/008884715",
    "name": "Blaton",
    "alternative_fr": "",
    "alternative_nl": "",
    "alternative_de": "",
    "alternative_en": "",
    "longitude": "3.666304",
    "latitude": "50.505461",
    "country_code": "be"
  },
  {
    "uri": "http://irail.be/stations/NMBS/008841434",
    "name": "Bleret",
    "alternative_fr": "",
    "alternative_nl": "",
    "alternative_de": "",
    "alternative_en": "",
    "longitude": "5.286394",
    "latitude": "50.685065",
    "country_code": "be"
  },
  {
    "uri": "http://irail.be/stations/NMBS/008812021",
    "name": "Bockstael",
    "alternative_fr": "",
    "alternative_nl": "",
    "alternative_de": "",
    "alternative_en": "",
    "longitude": "4.348513",
    "latitude": "50.87943",
    "country_code": "be"
  },
  {
    "uri": "http://irail.be/stations/NMBS/008821634",
    "name": "Boechout",
    "alternative_fr": "",
    "alternative_nl": "",
    "alternative_de": "",
    "alternative_en": "",
    "longitude": "4.494489",
    "latitude": "51.16348",
    "country_code": "be"
  },
  {
    "uri": "http://irail.be/stations/NMBS/008831781",
    "name": "Bokrijk",
    "alternative_fr": "",
    "alternative_nl": "",
    "alternative_de": "",
    "alternative_en": "",
    "longitude": "5.408386",
    "latitude": "50.955812",
    "country_code": "be"
  },
  {
    "uri": "http://irail.be/stations/NMBS/008864469",
    "name": "Bomal",
    "alternative_fr": "",
    "alternative_nl": "",
    "alternative_de": "",
    "alternative_en": "",
    "longitude": "5.519304",
    "latitude": "50.376798",
    "country_code": "be"
  },
  {
    "uri": "http://irail.be/stations/NMBS/008015577",
    "name": "Bonn-Beuel (DE)",
    "alternative_fr": "",
    "alternative_nl": "",
    "alternative_de": "",
    "alternative_en": "",
    "longitude": "7.12760000",
    "latitude": "50.7385000",
    "country_code": "de"
  },
  {
    "uri": "http://irail.be/stations/NMBS/008821857",
    "name": "Booischot",
    "alternative_fr": "",
    "alternative_nl": "",
    "alternative_de": "",
    "alternative_en": "",
    "longitude": "4.773478",
    "latitude": "51.037344",
    "country_code": "be"
  },
  {
    "uri": "http://irail.be/stations/NMBS/008822814",
    "name": "Boom",
    "alternative_fr": "",
    "alternative_nl": "",
    "alternative_de": "",
    "alternative_en": "",
    "longitude": "4.360694",
    "latitude": "51.090713",
    "country_code": "be"
  },
  {
    "uri": "http://irail.be/stations/NMBS/008814456",
    "name": "Boondaal/Boondael",
    "alternative_fr": "Boondael",
    "alternative_nl": "Boondaal",
    "alternative_de": "",
    "alternative_en": "",
    "longitude": "4.393387",
    "latitude": "50.801665",
    "country_code": "be"
  },
  {
    "uri": "http://irail.be/stations/NMBS/008822475",
    "name": "Boortmeerbeek",
    "alternative_fr": "",
    "alternative_nl": "",
    "alternative_de": "",
    "alternative_en": "",
    "longitude": "4.5739",
    "latitude": "50.981853",
    "country_code": "be"
  },
  {
    "uri": "http://irail.be/stations/NMBS/008758100",
    "name": "Bordeaux Saint Jean",
    "alternative_fr": "",
    "alternative_nl": "",
    "alternative_de": "",
    "alternative_en": "",
    "longitude": "-0.5557068",
    "latitude": "44.8256102",
    "country_code": "fr"
  },
  {
    "uri": "http://irail.be/stations/NMBS/008811163",
    "name": "Bordet",
    "alternative_fr": "",
    "alternative_nl": "",
    "alternative_de": "",
    "alternative_en": "",
    "longitude": "4.410026",
    "latitude": "50.877785",
    "country_code": "be"
  },
  {
    "uri": "http://irail.be/stations/NMBS/008822772",
    "name": "Bornem",
    "alternative_fr": "",
    "alternative_nl": "",
    "alternative_de": "",
    "alternative_en": "",
    "longitude": "4.240526",
    "latitude": "51.099225",
    "country_code": "be"
  },
  {
    "uri": "http://irail.be/stations/NMBS/008811437",
    "name": "Bosvoorde/Boitsfort",
    "alternative_fr": "Boitsfort",
    "alternative_nl": "Bosvoorde",
    "alternative_de": "",
    "alternative_en": "",
    "longitude": "4.408112",
    "latitude": "50.794698",
    "country_code": "be"
  },
  {
    "uri": "http://irail.be/stations/NMBS/008774179",
    "name": "Bourg-Saint-Maurice",
    "alternative_fr": "",
    "alternative_nl": "",
    "alternative_de": "",
    "alternative_en": "",
    "longitude": "6.771664",
    "latitude": "45.618826",
    "country_code": "fr"
  },
  {
    "uri": "http://irail.be/stations/NMBS/008884319",
    "name": "Boussu",
    "alternative_fr": "",
    "alternative_nl": "",
    "alternative_de": "",
    "alternative_en": "",
    "longitude": "3.797025",
    "latitude": "50.436388",
    "country_code": "be"
  },
  {
    "uri": "http://irail.be/stations/NMBS/008821725",
    "name": "Bouwel",
    "alternative_fr": "",
    "alternative_nl": "",
    "alternative_de": "",
    "alternative_en": "",
    "longitude": "4.746511",
    "latitude": "51.165764",
    "country_code": "be"
  },
  {
    "uri": "http://irail.be/stations/NMBS/008881463",
    "name": "Bracquegnies",
    "alternative_fr": "",
    "alternative_nl": "",
    "alternative_de": "",
    "alternative_en": "",
    "longitude": "4.126345",
    "latitude": "50.474457",
    "country_code": "be"
  },
  {
    "uri": "http://irail.be/stations/NMBS/008814258",
    "name": "Braine-l'Alleud",
    "alternative_fr": "",
    "alternative_nl": "Eigenbrakel",
    "alternative_de": "",
    "alternative_en": "",
    "longitude": "4.375526",
    "latitude": "50.684778",
    "country_code": "be"
  },
  {
    "uri": "http://irail.be/stations/NMBS/008883006",
    "name": "Braine-le-Comte",
    "alternative_fr": "",
    "alternative_nl": "'s Gravenbrakel",
    "alternative_de": "",
    "alternative_en": "",
    "longitude": "4.137662",
    "latitude": "50.605079",
    "country_code": "be"
  },
  {
    "uri": "http://irail.be/stations/NMBS/008400131",
    "name": "Breda",
    "alternative_fr": "",
    "alternative_nl": "",
    "alternative_de": "",
    "alternative_en": "",
    "longitude": "4.7764000000",
    "latitude": "51.5944590000",
    "country_code": "nl"
  },
  {
    "uri": "http://irail.be/stations/NMBS/008843901",
    "name": "Bressoux",
    "alternative_fr": "",
    "alternative_nl": "",
    "alternative_de": "",
    "alternative_en": "",
    "longitude": "5.611057",
    "latitude": "50.643967",
    "country_code": "be"
  },
  {
    "uri": "http://irail.be/stations/NMBS/008886066",
    "name": "Brugelette",
    "alternative_fr": "",
    "alternative_nl": "",
    "alternative_de": "",
    "alternative_en": "",
    "longitude": "3.852551",
    "latitude": "50.594229",
    "country_code": "be"
  },
  {
    "uri": "http://irail.be/stations/NMBS/008891009",
    "name": "Brugge",
    "alternative_fr": "Bruges",
    "alternative_nl": "",
    "alternative_de": "Brügge",
    "alternative_en": "Bruges",
    "longitude": "3.216726",
    "latitude": "51.197226",
    "country_code": "be"
  },
  {
    "uri": "http://irail.be/stations/NMBS/008891033",
    "name": "Brugge-Sint-Pieters",
    "alternative_fr": "Bruges-Saint-Pierre",
    "alternative_nl": "",
    "alternative_de": "",
    "alternative_en": "",
    "longitude": "3.201795",
    "latitude": "51.223115",
    "country_code": "be"
  },
  {
    "uri": "http://irail.be/stations/NMBS/008813003",
    "name": "Brussel-Centraal/Bruxelles-Central",
    "alternative_fr": "Bruxelles-Central",
    "alternative_nl": "Brussel-Centraal",
    "alternative_de": "Brüssel-Central",
    "alternative_en": "Brussels-Central",
    "longitude": "4.356801",
    "latitude": "50.845658",
    "country_code": "be"
  },
  {
    "uri": "http://irail.be/stations/NMBS/008813045",
    "name": "Brussel-Congres/Bruxelles-Congrès",
    "alternative_fr": "Bruxelles-Congrès",
    "alternative_nl": "Brussel-Congres",
    "alternative_de": "Brüssel-Congres",
    "alternative_en": "Brussels-Congres",
    "longitude": "4.362051",
    "latitude": "50.852067",
    "country_code": "be"
  },
  {
    "uri": "http://irail.be/stations/NMBS/008813037",
    "name": "Brussel-Kapellekerk/Bruxelles-Chapelle",
    "alternative_fr": "Bruxelles-Chapelle",
    "alternative_nl": "Brussel-Kapellekerk",
    "alternative_de": "Brüssel-Kapellenkirche",
    "alternative_en": "Brussels-Chapelle/Brussels-Kapellekerk",
    "longitude": "4.347866",
    "latitude": "50.841127",
    "country_code": "be"
  },
  {
    "uri": "http://irail.be/stations/NMBS/008811304",
    "name": "Brussel-Luxemburg/Bruxelles-Luxembourg",
    "alternative_fr": "Bruxelles-Luxembourg",
    "alternative_nl": "Brussel-Luxemburg",
    "alternative_de": "Brüssel-Luxemburg",
    "alternative_en": "Brussels-Luxemburg/Brussels-Luxembourg",
    "longitude": "4.373674",
    "latitude": "50.838943",
    "country_code": "be"
  },
  {
    "uri": "http://irail.be/stations/NMBS/008812005",
    "name": "Brussel-Noord/Bruxelles-Nord",
    "alternative_fr": "Bruxelles-Nord",
    "alternative_nl": "Brussel-Noord",
    "alternative_de": "Brüssel-Nord",
    "alternative_en": "Brussels-North",
    "longitude": "4.360846",
    "latitude": "50.859663",
    "country_code": "be"
  },
  {
    "uri": "http://irail.be/stations/NMBS/008811916",
    "name": "Brussel-Schuman/Bruxelles-Schuman",
    "alternative_fr": "Bruxelles-Schuman",
    "alternative_nl": "Brussel-Schuman",
    "alternative_de": "Brüssel-Schuman",
    "alternative_en": "Brussels-Schuman",
    "longitude": "4.380722",
    "latitude": "50.843276",
    "country_code": "be"
  },
  {
    "uri": "http://irail.be/stations/NMBS/008815040",
    "name": "Brussel-West/Bruxelles-Ouest",
    "alternative_fr": "Bruxelles-Ouest",
    "alternative_nl": "Brussel-West",
    "alternative_de": "Brüssel-Westen",
    "alternative_en": "Brussels-West",
    "longitude": "4.321042",
    "latitude": "50.848552",
    "country_code": "be"
  },
  {
    "uri": "http://irail.be/stations/NMBS/008814001",
    "name": "Brussel-Zuid/Bruxelles-Midi",
    "alternative_fr": "Bruxelles-Midi",
    "alternative_nl": "Brussel-Zuid",
    "alternative_de": "Brüssel-Süd (Midi)",
    "alternative_en": "Brussels-South/Brussels-Midi",
    "longitude": "4.336531",
    "latitude": "50.835707",
    "country_code": "be"
  },
  {
    "uri": "http://irail.be/stations/NMBS/008819406",
    "name": "Brussels Airport - Zaventem",
    "alternative_fr": "",
    "alternative_nl": "",
    "alternative_de": "",
    "alternative_en": "",
    "longitude": "4.482076",
    "latitude": "50.896456",
    "country_code": "be"
  },
  {
    "uri": "http://irail.be/stations/NMBS/008811148",
    "name": "Buda",
    "alternative_fr": "",
    "alternative_nl": "",
    "alternative_de": "",
    "alternative_en": "",
    "longitude": "4.417074",
    "latitude": "50.907495",
    "country_code": "be"
  },
  {
    "uri": "http://irail.be/stations/NMBS/008822145",
    "name": "Buggenhout",
    "alternative_fr": "",
    "alternative_nl": "",
    "alternative_de": "",
    "alternative_en": "",
    "longitude": "4.201666",
    "latitude": "51.016291",
    "country_code": "be"
  },
  {
    "uri": "http://irail.be/stations/NMBS/008814340",
    "name": "Buizingen",
    "alternative_fr": "",
    "alternative_nl": "",
    "alternative_de": "",
    "alternative_en": "",
    "longitude": "4.258558",
    "latitude": "50.751577",
    "country_code": "be"
  },
  {
    "uri": "http://irail.be/stations/NMBS/008895455",
    "name": "Burst",
    "alternative_fr": "",
    "alternative_nl": "",
    "alternative_de": "",
    "alternative_en": "",
    "longitude": "3.922416",
    "latitude": "50.907198",
    "country_code": "be"
  },
  {
    "uri": "http://irail.be/stations/NMBS/008778100",
    "name": "Béziers",
    "alternative_fr": "",
    "alternative_nl": "",
    "alternative_de": "",
    "alternative_en": "",
    "longitude": "3.218794",
    "latitude": "43.336177",
    "country_code": "fr"
  },
  {
    "uri": "http://irail.be/stations/NMBS/008884889",
    "name": "Callenelle",
    "alternative_fr": "",
    "alternative_nl": "",
    "alternative_de": "",
    "alternative_en": "",
    "longitude": "3.52618",
    "latitude": "50.527359",
    "country_code": "be"
  },
  {
    "uri": "http://irail.be/stations/NMBS/008886074",
    "name": "Cambron-Casteau",
    "alternative_fr": "",
    "alternative_nl": "",
    "alternative_de": "",
    "alternative_en": "",
    "longitude": "3.874809",
    "latitude": "50.586759",
    "country_code": "be"
  },
  {
    "uri": "http://irail.be/stations/NMBS/008775762",
    "name": "Cannes",
    "alternative_fr": "",
    "alternative_nl": "",
    "alternative_de": "",
    "alternative_en": "",
    "longitude": "7.019895",
    "latitude": "43.553742",
    "country_code": "fr"
  },
  {
    "uri": "http://irail.be/stations/NMBS/008200518",
    "name": "Capellen",
    "alternative_fr": "",
    "alternative_nl": "",
    "alternative_de": "",
    "alternative_en": "",
    "longitude": "5.99083300",
    "latitude": "49.6450000",
    "country_code": "lu"
  },
  {
    "uri": "http://irail.be/stations/NMBS/008865565",
    "name": "Carlsbourg",
    "alternative_fr": "",
    "alternative_nl": "",
    "alternative_de": "",
    "alternative_en": "",
    "longitude": "5.092784",
    "latitude": "49.905458",
    "country_code": "be"
  },
  {
    "uri": "http://irail.be/stations/NMBS/008882248",
    "name": "Carnieres",
    "alternative_fr": "",
    "alternative_nl": "",
    "alternative_de": "",
    "alternative_en": "",
    "longitude": "4.263826",
    "latitude": "50.447957",
    "country_code": "be"
  },
  {
    "uri": "http://irail.be/stations/NMBS/008811817",
    "name": "Ceroux-Mousty",
    "alternative_fr": "",
    "alternative_nl": "",
    "alternative_de": "",
    "alternative_en": "",
    "longitude": "4.569046",
    "latitude": "50.659941",
    "country_code": "be"
  },
  {
    "uri": "http://irail.be/stations/NMBS/008774100",
    "name": "Chambéry-Challes-les-Eaux",
    "alternative_fr": "",
    "alternative_nl": "",
    "alternative_de": "",
    "alternative_en": "",
    "longitude": "5.919756",
    "latitude": "45.571498",
    "country_code": "fr"
  },
  {
    "uri": "http://irail.be/stations/NMBS/008861317",
    "name": "Chapelle-Dieu",
    "alternative_fr": "",
    "alternative_nl": "",
    "alternative_de": "",
    "alternative_en": "",
    "longitude": "4.697627",
    "latitude": "50.557374",
    "country_code": "be"
  },
  {
    "uri": "http://irail.be/stations/NMBS/008864824",
    "name": "Chapois",
    "alternative_fr": "",
    "alternative_nl": "",
    "alternative_de": "",
    "alternative_en": "",
    "longitude": "5.124255",
    "latitude": "50.262366",
    "country_code": "be"
  },
  {
    "uri": "http://irail.be/stations/NMBS/008872009",
    "name": "Charleroi-Central",
    "alternative_fr": "",
    "alternative_nl": "Charleroi-Centraal",
    "alternative_de": "",
    "alternative_en": "",
    "longitude": "4.438567",
    "latitude": "50.40471",
    "country_code": "be"
  },
  {
    "uri": "http://irail.be/stations/NMBS/008872066",
    "name": "Charleroi-Ouest",
    "alternative_fr": "",
    "alternative_nl": "Charleroi-West",
    "alternative_de": "",
    "alternative_en": "",
    "longitude": "4.436653",
    "latitude": "50.410948",
    "country_code": "be"
  },
  {
    "uri": "http://irail.be/stations/NMBS/008861523",
    "name": "Chastre",
    "alternative_fr": "",
    "alternative_nl": "",
    "alternative_de": "",
    "alternative_en": "",
    "longitude": "4.648888",
    "latitude": "50.608819",
    "country_code": "be"
  },
  {
    "uri": "http://irail.be/stations/NMBS/008842051",
    "name": "Chaudfontaine",
    "alternative_fr": "",
    "alternative_nl": "",
    "alternative_de": "",
    "alternative_en": "",
    "longitude": "5.64373400",
    "latitude": "50.5869820",
    "country_code": "be"
  },
  {
    "uri": "http://irail.be/stations/NMBS/008863438",
    "name": "Château-de-Seilles",
    "alternative_fr": "",
    "alternative_nl": "",
    "alternative_de": "",
    "alternative_en": "",
    "longitude": "5.081745",
    "latitude": "50.497209",
    "country_code": "be"
  },
  {
    "uri": "http://irail.be/stations/NMBS/008874005",
    "name": "Châtelet",
    "alternative_fr": "",
    "alternative_nl": "",
    "alternative_de": "",
    "alternative_en": "",
    "longitude": "4.521861",
    "latitude": "50.410103",
    "country_code": "be"
  },
  {
    "uri": "http://irail.be/stations/NMBS/008842036",
    "name": "Chênée",
    "alternative_fr": "",
    "alternative_nl": "",
    "alternative_de": "",
    "alternative_en": "",
    "longitude": "5.616073",
    "latitude": "50.608019",
    "country_code": "be"
  },
  {
    "uri": "http://irail.be/stations/NMBS/008864501",
    "name": "Ciney",
    "alternative_fr": "",
    "alternative_nl": "",
    "alternative_de": "",
    "alternative_en": "",
    "longitude": "5.091409",
    "latitude": "50.29105",
    "country_code": "be"
  },
  {
    "uri": "http://irail.be/stations/NMBS/008200134",
    "name": "Clervaux",
    "alternative_fr": "",
    "alternative_nl": "",
    "alternative_de": "",
    "alternative_en": "",
    "longitude": "6.031393",
    "latitude": "50.054724",
    "country_code": "lu"
  },
  {
    "uri": "http://irail.be/stations/NMBS/008718201",
    "name": "Colmar",
    "alternative_fr": "",
    "alternative_nl": "",
    "alternative_de": "",
    "alternative_en": "",
    "longitude": "7.366668",
    "latitude": "48.083335",
    "country_code": "fr"
  },
  {
    "uri": "http://irail.be/stations/NMBS/008842838",
    "name": "Comblain-la-Tour",
    "alternative_fr": "",
    "alternative_nl": "",
    "alternative_de": "",
    "alternative_en": "",
    "longitude": "5.566956",
    "latitude": "50.456865",
    "country_code": "be"
  },
  {
    "uri": "http://irail.be/stations/NMBS/008896412",
    "name": "Comines",
    "alternative_fr": "",
    "alternative_nl": "Komen",
    "alternative_de": "Comines/Komen",
    "alternative_en": "Komen/Comines",
    "longitude": "2.999286",
    "latitude": "50.772072",
    "country_code": "be"
  },
  {
    "uri": "http://irail.be/stations/NMBS/008845229",
    "name": "Coo",
    "alternative_fr": "",
    "alternative_nl": "",
    "alternative_de": "",
    "alternative_en": "",
    "longitude": "5.880473",
    "latitude": "50.391127",
    "country_code": "be"
  },
  {
    "uri": "http://irail.be/stations/NMBS/008874054",
    "name": "Couillet",
    "alternative_fr": "",
    "alternative_nl": "",
    "alternative_de": "",
    "alternative_en": "",
    "longitude": "4.46851",
    "latitude": "50.392718",
    "country_code": "be"
  },
  {
    "uri": "http://irail.be/stations/NMBS/008873379",
    "name": "Cour-sur-Heure",
    "alternative_fr": "",
    "alternative_nl": "",
    "alternative_de": "",
    "alternative_en": "",
    "longitude": "4.391491",
    "latitude": "50.300138",
    "country_code": "be"
  },
  {
    "uri": "http://irail.be/stations/NMBS/008871225",
    "name": "Courcelles-Motte",
    "alternative_fr": "",
    "alternative_nl": "",
    "alternative_de": "",
    "alternative_en": "",
    "longitude": "4.400534",
    "latitude": "50.462007",
    "country_code": "be"
  },
  {
    "uri": "http://irail.be/stations/NMBS/008864949",
    "name": "Courrière",
    "alternative_fr": "",
    "alternative_nl": "",
    "alternative_de": "",
    "alternative_en": "",
    "longitude": "4.996051",
    "latitude": "50.387442",
    "country_code": "be"
  },
  {
    "uri": "http://irail.be/stations/NMBS/008811825",
    "name": "Court-Saint-Étienne",
    "alternative_fr": "",
    "alternative_nl": "",
    "alternative_de": "",
    "alternative_en": "",
    "longitude": "4.565819",
    "latitude": "50.645567",
    "country_code": "be"
  },
  {
    "uri": "http://irail.be/stations/NMBS/008875127",
    "name": "Couvin",
    "alternative_fr": "",
    "alternative_nl": "",
    "alternative_de": "",
    "alternative_en": "",
    "longitude": "4.491702",
    "latitude": "50.056324",
    "country_code": "be"
  },
  {
    "uri": "http://irail.be/stations/NMBS/008701687",
    "name": "Creil",
    "alternative_fr": "",
    "alternative_nl": "",
    "alternative_de": "",
    "alternative_en": "",
    "longitude": "2.469167",
    "latitude": "49.263889",
    "country_code": "fr"
  },
  {
    "uri": "http://irail.be/stations/NMBS/008728671",
    "name": "Croix Wasquehal",
    "alternative_fr": "",
    "alternative_nl": "",
    "alternative_de": "",
    "alternative_en": "",
    "longitude": "3.15000000",
    "latitude": "50.6666670",
    "country_code": "fr"
  },
  {
    "uri": "http://irail.be/stations/NMBS/008728105",
    "name": "Croix l'Allumette",
    "alternative_fr": "",
    "alternative_nl": "",
    "alternative_de": "",
    "alternative_en": "",
    "longitude": "3.15079700",
    "latitude": "50.6866800",
    "country_code": "fr"
  },
  {
    "uri": "http://irail.be/stations/NMBS/008863362",
    "name": "Dave-Saint-Martin",
    "alternative_fr": "",
    "alternative_nl": "",
    "alternative_de": "",
    "alternative_en": "",
    "longitude": "4.884414",
    "latitude": "50.429098",
    "country_code": "be"
  },
  {
    "uri": "http://irail.be/stations/NMBS/008814175",
    "name": "De Hoek",
    "alternative_fr": "",
    "alternative_nl": "",
    "alternative_de": "",
    "alternative_en": "",
    "longitude": "4.370717",
    "latitude": "50.738812",
    "country_code": "be"
  },
  {
    "uri": "http://irail.be/stations/NMBS/008892338",
    "name": "De Panne",
    "alternative_fr": "La Panne",
    "alternative_nl": "",
    "alternative_de": "",
    "alternative_en": "",
    "longitude": "2.601963",
    "latitude": "51.0774",
    "country_code": "be"
  },
  {
    "uri": "http://irail.be/stations/NMBS/008892080",
    "name": "De Pinte",
    "alternative_fr": "",
    "alternative_nl": "",
    "alternative_de": "",
    "alternative_en": "",
    "longitude": "3.650465",
    "latitude": "50.997063",
    "country_code": "be"
  },
  {
    "uri": "http://irail.be/stations/NMBS/008892106",
    "name": "Deinze",
    "alternative_fr": "",
    "alternative_nl": "",
    "alternative_de": "",
    "alternative_en": "",
    "longitude": "3.534432",
    "latitude": "50.978258",
    "country_code": "be"
  },
  {
    "uri": "http://irail.be/stations/NMBS/008811205",
    "name": "Delta",
    "alternative_fr": "",
    "alternative_nl": "",
    "alternative_de": "",
    "alternative_en": "",
    "longitude": "4.403869",
    "latitude": "50.818357",
    "country_code": "be"
  },
  {
    "uri": "http://irail.be/stations/NMBS/008400280",
    "name": "Den Haag HS",
    "alternative_fr": "",
    "alternative_nl": "",
    "alternative_de": "",
    "alternative_en": "",
    "longitude": "4.299999",
    "latitude": "52.083329",
    "country_code": "nl"
  },
  {
    "uri": "http://irail.be/stations/NMBS/008895802",
    "name": "Denderleeuw",
    "alternative_fr": "",
    "alternative_nl": "",
    "alternative_de": "",
    "alternative_en": "",
    "longitude": "4.071825",
    "latitude": "50.891925",
    "country_code": "be"
  },
  {
    "uri": "http://irail.be/stations/NMBS/008893401",
    "name": "Dendermonde",
    "alternative_fr": "Termonde",
    "alternative_nl": "",
    "alternative_de": "",
    "alternative_en": "",
    "longitude": "4.101427",
    "latitude": "51.022781",
    "country_code": "be"
  },
  {
    "uri": "http://irail.be/stations/NMBS/008811213",
    "name": "Diegem",
    "alternative_fr": "",
    "alternative_nl": "",
    "alternative_de": "",
    "alternative_en": "",
    "longitude": "4.442774",
    "latitude": "50.890478",
    "country_code": "be"
  },
  {
    "uri": "http://irail.be/stations/NMBS/008831112",
    "name": "Diepenbeek",
    "alternative_fr": "",
    "alternative_nl": "",
    "alternative_de": "",
    "alternative_en": "",
    "longitude": "5.419947",
    "latitude": "50.910452",
    "country_code": "be"
  },
  {
    "uri": "http://irail.be/stations/NMBS/008814464",
    "name": "Diesdelle/Vivier d'Oie",
    "alternative_fr": "Vivier d'Oie",
    "alternative_nl": "Diesdelle",
    "alternative_de": "",
    "alternative_en": "",
    "longitude": "4.374052",
    "latitude": "50.796145",
    "country_code": "be"
  },
  {
    "uri": "http://irail.be/stations/NMBS/008831401",
    "name": "Diest",
    "alternative_fr": "",
    "alternative_nl": "",
    "alternative_de": "",
    "alternative_en": "",
    "longitude": "5.050031",
    "latitude": "50.993341",
    "country_code": "be"
  },
  {
    "uri": "http://irail.be/stations/NMBS/008892452",
    "name": "Diksmuide",
    "alternative_fr": "Dixmude",
    "alternative_nl": "",
    "alternative_de": "",
    "alternative_en": "",
    "longitude": "2.868943",
    "latitude": "51.032723",
    "country_code": "be"
  },
  {
    "uri": "http://irail.be/stations/NMBS/008812237",
    "name": "Dilbeek",
    "alternative_fr": "",
    "alternative_nl": "",
    "alternative_de": "",
    "alternative_en": "",
    "longitude": "4.243393",
    "latitude": "50.866728",
    "country_code": "be"
  },
  {
    "uri": "http://irail.be/stations/NMBS/008863503",
    "name": "Dinant",
    "alternative_fr": "",
    "alternative_nl": "",
    "alternative_de": "",
    "alternative_en": "",
    "longitude": "4.908182",
    "latitude": "50.260721",
    "country_code": "be"
  },
  {
    "uri": "http://irail.be/stations/NMBS/008200714",
    "name": "Dippach-Reckange",
    "alternative_fr": "",
    "alternative_nl": "",
    "alternative_de": "",
    "alternative_en": "",
    "longitude": "5.99526700",
    "latitude": "49.5725600",
    "country_code": "lu"
  },
  {
    "uri": "http://irail.be/stations/NMBS/008844545",
    "name": "Dolhain-Gileppe",
    "alternative_fr": "",
    "alternative_nl": "",
    "alternative_de": "",
    "alternative_en": "",
    "longitude": "5.936494",
    "latitude": "50.616244",
    "country_code": "be"
  },
  {
    "uri": "http://irail.be/stations/NMBS/008200101",
    "name": "Dommeldange",
    "alternative_fr": "",
    "alternative_nl": "",
    "alternative_de": "",
    "alternative_en": "",
    "longitude": "6.13668",
    "latitude": "49.633838",
    "country_code": "lu"
  },
  {
    "uri": "http://irail.be/stations/NMBS/008400180",
    "name": "Dordrecht",
    "alternative_fr": "",
    "alternative_nl": "",
    "alternative_de": "",
    "alternative_en": "",
    "longitude": "4.666668",
    "latitude": "51.799998",
    "country_code": "nl"
  },
  {
    "uri": "http://irail.be/stations/NMBS/008010053",
    "name": "Dortmund Hbf",
    "alternative_fr": "",
    "alternative_nl": "",
    "alternative_de": "",
    "alternative_en": "",
    "longitude": "7.459293",
    "latitude": "51.517898",
    "country_code": "de"
  },
  {
    "uri": "http://irail.be/stations/NMBS/008200133",
    "name": "Drauffelt",
    "alternative_fr": "",
    "alternative_nl": "",
    "alternative_de": "",
    "alternative_en": "",
    "longitude": "6.006106",
    "latitude": "50.017778",
    "country_code": "lu"
  },
  {
    "uri": "http://irail.be/stations/NMBS/008892031",
    "name": "Drongen",
    "alternative_fr": "Tronchiennes",
    "alternative_nl": "",
    "alternative_de": "",
    "alternative_en": "",
    "longitude": "3.655202",
    "latitude": "51.047295",
    "country_code": "be"
  },
  {
    "uri": "http://irail.be/stations/NMBS/008015653",
    "name": "Duesseldorf Flughafen (DE)",
    "alternative_fr": "",
    "alternative_nl": "",
    "alternative_de": "",
    "alternative_en": "",
    "longitude": "6.76705200",
    "latitude": "51.2765600",
    "country_code": "de"
  },
  {
    "uri": "http://irail.be/stations/NMBS/008008094",
    "name": "Duesseldorf Hbf",
    "alternative_fr": "Düsseldorf Hbf",
    "alternative_nl": "Düsseldorf Hbf",
    "alternative_de": "Düsseldorf Hbf",
    "alternative_en": "Dusseldorf Hbf",
    "longitude": "6.795297",
    "latitude": "51.219178",
    "country_code": "de"
  },
  {
    "uri": "http://irail.be/stations/NMBS/008822210",
    "name": "Duffel",
    "alternative_fr": "",
    "alternative_nl": "",
    "alternative_de": "",
    "alternative_en": "",
    "longitude": "4.493186",
    "latitude": "51.091243",
    "country_code": "be"
  },
  {
    "uri": "http://irail.be/stations/NMBS/008891652",
    "name": "Duinbergen",
    "alternative_fr": "",
    "alternative_nl": "",
    "alternative_de": "",
    "alternative_en": "",
    "longitude": "3.263587",
    "latitude": "51.338195",
    "country_code": "be"
  },
  {
    "uri": "http://irail.be/stations/NMBS/008010316",
    "name": "Duisburg Hbf",
    "alternative_fr": "",
    "alternative_nl": "",
    "alternative_de": "",
    "alternative_en": "",
    "longitude": "6.7759037",
    "latitude": "51.42978",
    "country_code": "de"
  },
  {
    "uri": "http://irail.be/stations/NMBS/008039904",
    "name": "Düsseldorf Flughafen Hbf",
    "alternative_fr": "",
    "alternative_nl": "",
    "alternative_de": "",
    "alternative_en": "",
    "longitude": "6.786837",
    "latitude": "51.292008",
    "country_code": "de"
  },
  {
    "uri": "http://irail.be/stations/NMBS/007015440",
    "name": "Ebbsfleet International",
    "alternative_fr": "",
    "alternative_nl": "",
    "alternative_de": "",
    "alternative_en": "",
    "longitude": "0.27577500",
    "latitude": "51.4511700",
    "country_code": "gb"
  },
  {
    "uri": "http://irail.be/stations/NMBS/008895877",
    "name": "Ede",
    "alternative_fr": "",
    "alternative_nl": "",
    "alternative_de": "",
    "alternative_en": "",
    "longitude": "3.987524",
    "latitude": "50.911054",
    "country_code": "be"
  },
  {
    "uri": "http://irail.be/stations/NMBS/008893708",
    "name": "Eeklo",
    "alternative_fr": "",
    "alternative_nl": "",
    "alternative_de": "",
    "alternative_en": "",
    "longitude": "3.574515",
    "latitude": "51.181333",
    "country_code": "be"
  },
  {
    "uri": "http://irail.be/stations/NMBS/008895752",
    "name": "Eichem",
    "alternative_fr": "",
    "alternative_nl": "",
    "alternative_de": "",
    "alternative_en": "",
    "longitude": "3.993745",
    "latitude": "50.823994",
    "country_code": "be"
  },
  {
    "uri": "http://irail.be/stations/NMBS/008400219",
    "name": "Eijsden",
    "alternative_fr": "",
    "alternative_nl": "",
    "alternative_de": "",
    "alternative_en": "",
    "longitude": "5.709786",
    "latitude": "50.772135",
    "country_code": "nl"
  },
  {
    "uri": "http://irail.be/stations/NMBS/008892627",
    "name": "Eine",
    "alternative_fr": "",
    "alternative_nl": "",
    "alternative_de": "",
    "alternative_en": "",
    "longitude": "3.623776",
    "latitude": "50.870432",
    "country_code": "be"
  },
  {
    "uri": "http://irail.be/stations/NMBS/008892650",
    "name": "Eke-Nazareth",
    "alternative_fr": "",
    "alternative_nl": "",
    "alternative_de": "",
    "alternative_en": "",
    "longitude": "3.627839",
    "latitude": "50.960774",
    "country_code": "be"
  },
  {
    "uri": "http://irail.be/stations/NMBS/008821071",
    "name": "Ekeren",
    "alternative_fr": "",
    "alternative_nl": "",
    "alternative_de": "",
    "alternative_en": "",
    "longitude": "4.434154",
    "latitude": "51.281626",
    "country_code": "be"
  },
  {
    "uri": "http://irail.be/stations/NMBS/008883311",
    "name": "Enghien",
    "alternative_fr": "",
    "alternative_nl": "Edingen",
    "alternative_de": "Enghien/Edingen",
    "alternative_en": "Edingen/Enghien",
    "longitude": "4.047357",
    "latitude": "50.697273",
    "country_code": "be"
  },
  {
    "uri": "http://irail.be/stations/NMBS/008843240",
    "name": "Engis",
    "alternative_fr": "",
    "alternative_nl": "",
    "alternative_de": "",
    "alternative_en": "",
    "longitude": "5.401986",
    "latitude": "50.582957",
    "country_code": "be"
  },
  {
    "uri": "http://irail.be/stations/NMBS/008822269",
    "name": "Eppegem",
    "alternative_fr": "",
    "alternative_nl": "",
    "alternative_de": "",
    "alternative_en": "",
    "longitude": "4.45749",
    "latitude": "50.9584",
    "country_code": "be"
  },
  {
    "uri": "http://irail.be/stations/NMBS/008881158",
    "name": "Erbisœul",
    "alternative_fr": "Erbisoeul",
    "alternative_nl": "Erbisoeul",
    "alternative_de": "Erbisoeul",
    "alternative_en": "Erbisoeul",
    "longitude": "3.887987",
    "latitude": "50.507025",
    "country_code": "be"
  },
  {
    "uri": "http://irail.be/stations/NMBS/008895091",
    "name": "Erembodegem",
    "alternative_fr": "",
    "alternative_nl": "",
    "alternative_de": "",
    "alternative_en": "",
    "longitude": "4.055447",
    "latitude": "50.919621",
    "country_code": "be"
  },
  {
    "uri": "http://irail.be/stations/NMBS/008861515",
    "name": "Ernage",
    "alternative_fr": "",
    "alternative_nl": "",
    "alternative_de": "",
    "alternative_en": "",
    "longitude": "4.668538",
    "latitude": "50.590823",
    "country_code": "be"
  },
  {
    "uri": "http://irail.be/stations/NMBS/008895471",
    "name": "Erpe-Mere",
    "alternative_fr": "",
    "alternative_nl": "",
    "alternative_de": "",
    "alternative_en": "",
    "longitude": "3.962463",
    "latitude": "50.928601",
    "country_code": "be"
  },
  {
    "uri": "http://irail.be/stations/NMBS/008811262",
    "name": "Erps-Kwerps",
    "alternative_fr": "",
    "alternative_nl": "",
    "alternative_de": "",
    "alternative_en": "",
    "longitude": "4.585001",
    "latitude": "50.89651",
    "country_code": "be"
  },
  {
    "uri": "http://irail.be/stations/NMBS/008871605",
    "name": "Erquelinnes",
    "alternative_fr": "",
    "alternative_nl": "",
    "alternative_de": "",
    "alternative_en": "",
    "longitude": "4.113562",
    "latitude": "50.304192",
    "country_code": "be"
  },
  {
    "uri": "http://irail.be/stations/NMBS/008879004",
    "name": "Erquelinnes-Frontière",
    "alternative_fr": "",
    "alternative_nl": "",
    "alternative_de": "",
    "alternative_en": "",
    "longitude": "4.10792900",
    "latitude": "50.3023300",
    "country_code": "be"
  },
  {
    "uri": "http://irail.be/stations/NMBS/008871647",
    "name": "Erquelinnes-Village",
    "alternative_fr": "",
    "alternative_nl": "",
    "alternative_de": "",
    "alternative_en": "",
    "longitude": "4.132314",
    "latitude": "50.310179",
    "country_code": "be"
  },
  {
    "uri": "http://irail.be/stations/NMBS/008842663",
    "name": "Esneux",
    "alternative_fr": "",
    "alternative_nl": "",
    "alternative_de": "",
    "alternative_en": "",
    "longitude": "5.572565",
    "latitude": "50.530568",
    "country_code": "be"
  },
  {
    "uri": "http://irail.be/stations/NMBS/008821402",
    "name": "Essen",
    "alternative_fr": "",
    "alternative_nl": "",
    "alternative_de": "",
    "alternative_en": "",
    "longitude": "4.451314",
    "latitude": "51.462767",
    "country_code": "be"
  },
  {
    "uri": "http://irail.be/stations/NMBS/008010184",
    "name": "Essen Hbf",
    "alternative_fr": "",
    "alternative_nl": "",
    "alternative_de": "",
    "alternative_en": "",
    "longitude": "6.77611800",
    "latitude": "51.4295200",
    "country_code": "de"
  },
  {
    "uri": "http://irail.be/stations/NMBS/008829009",
    "name": "Essen-Grens",
    "alternative_fr": "",
    "alternative_nl": "",
    "alternative_de": "",
    "alternative_en": "",
    "longitude": "4.44893000",
    "latitude": "51.4690900",
    "country_code": "be"
  },
  {
    "uri": "http://irail.be/stations/NMBS/008812260",
    "name": "Essene-Lombeek",
    "alternative_fr": "",
    "alternative_nl": "",
    "alternative_de": "",
    "alternative_en": "",
    "longitude": "4.115171",
    "latitude": "50.882451",
    "country_code": "be"
  },
  {
    "uri": "http://irail.be/stations/NMBS/008200120",
    "name": "Ettelbréck",
    "alternative_fr": "Ettelbruck",
    "alternative_nl": "Ettelbruck",
    "alternative_de": "Ettelbrück",
    "alternative_en": "",
    "longitude": "6.104169",
    "latitude": "49.847496",
    "country_code": "lu"
  },
  {
    "uri": "http://irail.be/stations/NMBS/008811411",
    "name": "Etterbeek",
    "alternative_fr": "",
    "alternative_nl": "",
    "alternative_de": "",
    "alternative_en": "",
    "longitude": "4.389513",
    "latitude": "50.822187",
    "country_code": "be"
  },
  {
    "uri": "http://irail.be/stations/NMBS/008844628",
    "name": "Eupen",
    "alternative_fr": "",
    "alternative_nl": "",
    "alternative_de": "",
    "alternative_en": "",
    "longitude": "6.03711",
    "latitude": "50.635157",
    "country_code": "be"
  },
  {
    "uri": "http://irail.be/stations/NMBS/008811106",
    "name": "Evere",
    "alternative_fr": "",
    "alternative_nl": "",
    "alternative_de": "",
    "alternative_en": "",
    "longitude": "4.400965",
    "latitude": "50.86778",
    "country_code": "be"
  },
  {
    "uri": "http://irail.be/stations/NMBS/008893252",
    "name": "Evergem",
    "alternative_fr": "",
    "alternative_nl": "",
    "alternative_de": "",
    "alternative_en": "",
    "longitude": "3.70138",
    "latitude": "51.107585",
    "country_code": "be"
  },
  {
    "uri": "http://irail.be/stations/NMBS/008400234",
    "name": "Eygelshoven markt",
    "alternative_fr": "",
    "alternative_nl": "",
    "alternative_de": "",
    "alternative_en": "",
    "longitude": "6.05745100",
    "latitude": "50.8960700",
    "country_code": "nl"
  },
  {
    "uri": "http://irail.be/stations/NMBS/008833449",
    "name": "Ezemaal",
    "alternative_fr": "",
    "alternative_nl": "",
    "alternative_de": "",
    "alternative_en": "",
    "longitude": "4.994217",
    "latitude": "50.772126",
    "country_code": "be"
  },
  {
    "uri": "http://irail.be/stations/NMBS/008883238",
    "name": "Familleureux",
    "alternative_fr": "",
    "alternative_nl": "",
    "alternative_de": "",
    "alternative_en": "",
    "longitude": "4.211581",
    "latitude": "50.519358",
    "country_code": "be"
  },
  {
    "uri": "http://irail.be/stations/NMBS/008874567",
    "name": "Farciennes",
    "alternative_fr": "",
    "alternative_nl": "",
    "alternative_de": "",
    "alternative_en": "",
    "longitude": "4.55265000",
    "latitude": "50.4291480",
    "country_code": "be"
  },
  {
    "uri": "http://irail.be/stations/NMBS/008872611",
    "name": "Faux",
    "alternative_fr": "",
    "alternative_nl": "",
    "alternative_de": "",
    "alternative_en": "",
    "longitude": "4.54926",
    "latitude": "50.621826",
    "country_code": "be"
  },
  {
    "uri": "http://irail.be/stations/NMBS/008841467",
    "name": "Fexhe-le-Haut-Clocher",
    "alternative_fr": "",
    "alternative_nl": "",
    "alternative_de": "",
    "alternative_en": "",
    "longitude": "5.398453",
    "latitude": "50.664049",
    "country_code": "be"
  },
  {
    "uri": "http://irail.be/stations/NMBS/008861127",
    "name": "Flawinne",
    "alternative_fr": "",
    "alternative_nl": "",
    "alternative_de": "",
    "alternative_en": "",
    "longitude": "4.806298",
    "latitude": "50.456236",
    "country_code": "be"
  },
  {
    "uri": "http://irail.be/stations/NMBS/008843166",
    "name": "Flemalle-Grande",
    "alternative_fr": "",
    "alternative_nl": "",
    "alternative_de": "",
    "alternative_en": "",
    "longitude": "5.480983",
    "latitude": "50.605349",
    "country_code": "be"
  },
  {
    "uri": "http://irail.be/stations/NMBS/008843208",
    "name": "Flemalle-Haute",
    "alternative_fr": "",
    "alternative_nl": "",
    "alternative_de": "",
    "alternative_en": "",
    "longitude": "5.457656",
    "latitude": "50.595308",
    "country_code": "be"
  },
  {
    "uri": "http://irail.be/stations/NMBS/008872413",
    "name": "Fleurus",
    "alternative_fr": "",
    "alternative_nl": "",
    "alternative_de": "",
    "alternative_en": "",
    "longitude": "4.543741",
    "latitude": "50.481927",
    "country_code": "be"
  },
  {
    "uri": "http://irail.be/stations/NMBS/008861135",
    "name": "Floreffe",
    "alternative_fr": "",
    "alternative_nl": "",
    "alternative_de": "",
    "alternative_en": "",
    "longitude": "4.762368",
    "latitude": "50.443328",
    "country_code": "be"
  },
  {
    "uri": "http://irail.be/stations/NMBS/008866845",
    "name": "Florenville",
    "alternative_fr": "",
    "alternative_nl": "",
    "alternative_de": "",
    "alternative_en": "",
    "longitude": "5.331115",
    "latitude": "49.706967",
    "country_code": "be"
  },
  {
    "uri": "http://irail.be/stations/NMBS/008811767",
    "name": "Florival",
    "alternative_fr": "",
    "alternative_nl": "",
    "alternative_de": "",
    "alternative_en": "",
    "longitude": "4.653868",
    "latitude": "50.761501",
    "country_code": "be"
  },
  {
    "uri": "http://irail.be/stations/NMBS/008864923",
    "name": "Florée",
    "alternative_fr": "",
    "alternative_nl": "",
    "alternative_de": "",
    "alternative_en": "",
    "longitude": "5.056099",
    "latitude": "50.357786",
    "country_code": "be"
  },
  {
    "uri": "http://irail.be/stations/NMBS/008871688",
    "name": "Fontaine-Valmont",
    "alternative_fr": "",
    "alternative_nl": "",
    "alternative_de": "",
    "alternative_en": "",
    "longitude": "4.212785",
    "latitude": "50.321164",
    "country_code": "be"
  },
  {
    "uri": "http://irail.be/stations/NMBS/008871514",
    "name": "Forchies",
    "alternative_fr": "",
    "alternative_nl": "",
    "alternative_de": "",
    "alternative_en": "",
    "longitude": "4.325384",
    "latitude": "50.433314",
    "country_code": "be"
  },
  {
    "uri": "http://irail.be/stations/NMBS/008864311",
    "name": "Forrières",
    "alternative_fr": "",
    "alternative_nl": "",
    "alternative_de": "",
    "alternative_en": "",
    "longitude": "5.276784",
    "latitude": "50.132759",
    "country_code": "be"
  },
  {
    "uri": "http://irail.be/stations/NMBS/008844255",
    "name": "Fraipont",
    "alternative_fr": "",
    "alternative_nl": "",
    "alternative_de": "",
    "alternative_en": "",
    "longitude": "5.723665",
    "latitude": "50.565059",
    "country_code": "be"
  },
  {
    "uri": "http://irail.be/stations/NMBS/008881570",
    "name": "Frameries",
    "alternative_fr": "",
    "alternative_nl": "",
    "alternative_de": "",
    "alternative_en": "",
    "longitude": "3.906586",
    "latitude": "50.405932",
    "country_code": "be"
  },
  {
    "uri": "http://irail.be/stations/NMBS/008844347",
    "name": "Franchimont",
    "alternative_fr": "",
    "alternative_nl": "",
    "alternative_de": "",
    "alternative_en": "",
    "longitude": "5.822223",
    "latitude": "50.525723",
    "country_code": "be"
  },
  {
    "uri": "http://irail.be/stations/NMBS/008861143",
    "name": "Franière",
    "alternative_fr": "",
    "alternative_nl": "",
    "alternative_de": "",
    "alternative_en": "",
    "longitude": "4.733548",
    "latitude": "50.439543",
    "country_code": "be"
  },
  {
    "uri": "http://irail.be/stations/NMBS/008061676",
    "name": "Frankfurt am Main Flughafen Fernbf",
    "alternative_fr": "",
    "alternative_nl": "",
    "alternative_de": "",
    "alternative_en": "",
    "longitude": "8.66361100",
    "latitude": "50.1308300",
    "country_code": "de"
  },
  {
    "uri": "http://irail.be/stations/NMBS/008011090",
    "name": "Frankfurt am Main Flughafen Reginalbf",
    "alternative_fr": "",
    "alternative_nl": "",
    "alternative_de": "",
    "alternative_en": "",
    "longitude": "8.569853",
    "latitude": "50.051696",
    "country_code": "de"
  },
  {
    "uri": "http://irail.be/stations/NMBS/008011068",
    "name": "Frankfurt am Main Hbf",
    "alternative_fr": "Francfort-sur-le-Main Hbf",
    "alternative_nl": "",
    "alternative_de": "",
    "alternative_en": "",
    "longitude": "8.6653708",
    "latitude": "50.1071318",
    "country_code": "de"
  },
  {
    "uri": "http://irail.be/stations/NMBS/008885068",
    "name": "Froyennes",
    "alternative_fr": "",
    "alternative_nl": "",
    "alternative_de": "",
    "alternative_en": "",
    "longitude": "3.354837",
    "latitude": "50.62989",
    "country_code": "be"
  },
  {
    "uri": "http://irail.be/stations/NMBS/008895620",
    "name": "Galmaarden",
    "alternative_fr": "Gammerages",
    "alternative_nl": "",
    "alternative_de": "",
    "alternative_en": "",
    "longitude": "3.965726",
    "latitude": "50.743918",
    "country_code": "be"
  },
  {
    "uri": "http://irail.be/stations/NMBS/008811742",
    "name": "Gastuche",
    "alternative_fr": "",
    "alternative_nl": "",
    "alternative_de": "",
    "alternative_en": "",
    "longitude": "4.649598",
    "latitude": "50.736646",
    "country_code": "be"
  },
  {
    "uri": "http://irail.be/stations/NMBS/008892643",
    "name": "Gavere-Asper",
    "alternative_fr": "",
    "alternative_nl": "",
    "alternative_de": "",
    "alternative_en": "",
    "longitude": "3.639732",
    "latitude": "50.930021",
    "country_code": "be"
  },
  {
    "uri": "http://irail.be/stations/NMBS/008865649",
    "name": "Gedinne",
    "alternative_fr": "",
    "alternative_nl": "",
    "alternative_de": "",
    "alternative_en": "",
    "longitude": "4.978073",
    "latitude": "49.984123",
    "country_code": "be"
  },
  {
    "uri": "http://irail.be/stations/NMBS/008832433",
    "name": "Geel",
    "alternative_fr": "",
    "alternative_nl": "",
    "alternative_de": "",
    "alternative_en": "",
    "longitude": "4.988608",
    "latitude": "51.168955",
    "country_code": "be"
  },
  {
    "uri": "http://irail.be/stations/NMBS/008861200",
    "name": "Gembloux",
    "alternative_fr": "",
    "alternative_nl": "",
    "alternative_de": "",
    "alternative_en": "",
    "longitude": "4.691497",
    "latitude": "50.570489",
    "country_code": "be"
  },
  {
    "uri": "http://irail.be/stations/NMBS/008863834",
    "name": "Gendron-Celles",
    "alternative_fr": "",
    "alternative_nl": "",
    "alternative_de": "",
    "alternative_en": "",
    "longitude": "4.964607",
    "latitude": "50.211235",
    "country_code": "be"
  },
  {
    "uri": "http://irail.be/stations/NMBS/008831765",
    "name": "Genk",
    "alternative_fr": "",
    "alternative_nl": "",
    "alternative_de": "",
    "alternative_en": "",
    "longitude": "5.497685",
    "latitude": "50.967057",
    "country_code": "be"
  },
  {
    "uri": "http://irail.be/stations/NMBS/008881562",
    "name": "Genly",
    "alternative_fr": "",
    "alternative_nl": "",
    "alternative_de": "",
    "alternative_en": "",
    "longitude": "3.911638",
    "latitude": "50.390642",
    "country_code": "be"
  },
  {
    "uri": "http://irail.be/stations/NMBS/008893120",
    "name": "Gent-Dampoort",
    "alternative_fr": "Gand-Dampoort",
    "alternative_nl": "",
    "alternative_de": "",
    "alternative_en": "Ghent-Dampoort",
    "longitude": "3.740591",
    "latitude": "51.056365",
    "country_code": "be"
  },
  {
    "uri": "http://irail.be/stations/NMBS/008892007",
    "name": "Gent-Sint-Pieters",
    "alternative_fr": "Gand-Saint-Pierre",
    "alternative_nl": "",
    "alternative_de": "",
    "alternative_en": "Ghent-Sint-Pieters",
    "longitude": "3.710675",
    "latitude": "51.035896",
    "country_code": "be"
  },
  {
    "uri": "http://irail.be/stations/NMBS/008893179",
    "name": "Gentbrugge",
    "alternative_fr": "",
    "alternative_nl": "",
    "alternative_de": "",
    "alternative_en": "",
    "longitude": "3.756322",
    "latitude": "51.038647",
    "country_code": "be"
  },
  {
    "uri": "http://irail.be/stations/NMBS/008811528",
    "name": "Genval",
    "alternative_fr": "",
    "alternative_nl": "",
    "alternative_de": "",
    "alternative_en": "",
    "longitude": "4.514832",
    "latitude": "50.725697",
    "country_code": "be"
  },
  {
    "uri": "http://irail.be/stations/NMBS/008895505",
    "name": "Geraardsbergen",
    "alternative_fr": "Grammont",
    "alternative_nl": "",
    "alternative_de": "",
    "alternative_en": "",
    "longitude": "3.872328",
    "latitude": "50.771137",
    "country_code": "be"
  },
  {
    "uri": "http://irail.be/stations/NMBS/008881125",
    "name": "Ghlin",
    "alternative_fr": "",
    "alternative_nl": "",
    "alternative_de": "",
    "alternative_en": "",
    "longitude": "3.906343",
    "latitude": "50.487411",
    "country_code": "be"
  },
  {
    "uri": "http://irail.be/stations/NMBS/008841731",
    "name": "Glons",
    "alternative_fr": "",
    "alternative_nl": "Glaaien",
    "alternative_de": "",
    "alternative_en": "",
    "longitude": "5.535431",
    "latitude": "50.750426",
    "country_code": "be"
  },
  {
    "uri": "http://irail.be/stations/NMBS/008871381",
    "name": "Godarville",
    "alternative_fr": "",
    "alternative_nl": "",
    "alternative_de": "",
    "alternative_en": "",
    "longitude": "4.290308",
    "latitude": "50.492795",
    "country_code": "be"
  },
  {
    "uri": "http://irail.be/stations/NMBS/008863560",
    "name": "Godinne",
    "alternative_fr": "",
    "alternative_nl": "",
    "alternative_de": "",
    "alternative_en": "",
    "longitude": "4.86996",
    "latitude": "50.348914",
    "country_code": "be"
  },
  {
    "uri": "http://irail.be/stations/NMBS/008200129",
    "name": "Goebelsmühle",
    "alternative_fr": "",
    "alternative_nl": "",
    "alternative_de": "",
    "alternative_en": "",
    "longitude": "6.053335",
    "latitude": "49.92104",
    "country_code": "lu"
  },
  {
    "uri": "http://irail.be/stations/NMBS/008893047",
    "name": "Gontrode",
    "alternative_fr": "",
    "alternative_nl": "",
    "alternative_de": "",
    "alternative_en": "",
    "longitude": "3.801672",
    "latitude": "50.980199",
    "country_code": "be"
  },
  {
    "uri": "http://irail.be/stations/NMBS/008845005",
    "name": "Gouvy",
    "alternative_fr": "",
    "alternative_nl": "",
    "alternative_de": "",
    "alternative_en": "",
    "longitude": "5.953906",
    "latitude": "50.189409",
    "country_code": "be"
  },
  {
    "uri": "http://irail.be/stations/NMBS/008849072",
    "name": "Gouvy-Frontiere",
    "alternative_fr": "",
    "alternative_nl": "",
    "alternative_de": "",
    "alternative_en": "",
    "longitude": "5.96861300",
    "latitude": "50.1716530",
    "country_code": "be"
  },
  {
    "uri": "http://irail.be/stations/NMBS/008871373",
    "name": "Gouy-lez-Pieton",
    "alternative_fr": "",
    "alternative_nl": "",
    "alternative_de": "",
    "alternative_en": "",
    "longitude": "4.325123",
    "latitude": "50.497065",
    "country_code": "be"
  },
  {
    "uri": "http://irail.be/stations/NMBS/008865615",
    "name": "Graide",
    "alternative_fr": "",
    "alternative_nl": "",
    "alternative_de": "",
    "alternative_en": "",
    "longitude": "5.043047",
    "latitude": "49.934134",
    "country_code": "be"
  },
  {
    "uri": "http://irail.be/stations/NMBS/008811445",
    "name": "Groenendaal",
    "alternative_fr": "Groenendael",
    "alternative_nl": "",
    "alternative_de": "",
    "alternative_en": "",
    "longitude": "4.449489",
    "latitude": "50.766103",
    "country_code": "be"
  },
  {
    "uri": "http://irail.be/stations/NMBS/008812229",
    "name": "Groot-Bijgaarden",
    "alternative_fr": "Grand-Bigard",
    "alternative_nl": "",
    "alternative_de": "",
    "alternative_en": "",
    "longitude": "4.273543",
    "latitude": "50.868337",
    "country_code": "be"
  },
  {
    "uri": "http://irail.be/stations/NMBS/008864337",
    "name": "Grupont",
    "alternative_fr": "",
    "alternative_nl": "",
    "alternative_de": "",
    "alternative_en": "",
    "longitude": "5.280524",
    "latitude": "50.0906",
    "country_code": "be"
  },
  {
    "uri": "http://irail.be/stations/NMBS/008822517",
    "name": "Haacht",
    "alternative_fr": "",
    "alternative_nl": "",
    "alternative_de": "",
    "alternative_en": "",
    "longitude": "4.613309",
    "latitude": "50.966428",
    "country_code": "be"
  },
  {
    "uri": "http://irail.be/stations/NMBS/008895869",
    "name": "Haaltert",
    "alternative_fr": "",
    "alternative_nl": "",
    "alternative_de": "",
    "alternative_en": "",
    "longitude": "4.023958",
    "latitude": "50.906838",
    "country_code": "be"
  },
  {
    "uri": "http://irail.be/stations/NMBS/008866142",
    "name": "Habay",
    "alternative_fr": "",
    "alternative_nl": "",
    "alternative_de": "",
    "alternative_en": "",
    "longitude": "5.632685",
    "latitude": "49.718249",
    "country_code": "be"
  },
  {
    "uri": "http://irail.be/stations/NMBS/008884327",
    "name": "Hainin",
    "alternative_fr": "",
    "alternative_nl": "",
    "alternative_de": "",
    "alternative_en": "",
    "longitude": "3.766893",
    "latitude": "50.428019",
    "country_code": "be"
  },
  {
    "uri": "http://irail.be/stations/NMBS/008866530",
    "name": "Halanzy",
    "alternative_fr": "",
    "alternative_nl": "",
    "alternative_de": "",
    "alternative_en": "",
    "longitude": "5.741347",
    "latitude": "49.5562",
    "country_code": "be"
  },
  {
    "uri": "http://irail.be/stations/NMBS/008814308",
    "name": "Halle",
    "alternative_fr": "Hal",
    "alternative_nl": "",
    "alternative_de": "",
    "alternative_en": "",
    "longitude": "4.240634",
    "latitude": "50.733931",
    "country_code": "be"
  },
  {
    "uri": "http://irail.be/stations/NMBS/008873387",
    "name": "Ham-sur-Heure",
    "alternative_fr": "",
    "alternative_nl": "",
    "alternative_de": "",
    "alternative_en": "",
    "longitude": "4.404696",
    "latitude": "50.319555",
    "country_code": "be"
  },
  {
    "uri": "http://irail.be/stations/NMBS/008861168",
    "name": "Ham-sur-Sambre",
    "alternative_fr": "",
    "alternative_nl": "",
    "alternative_de": "",
    "alternative_en": "",
    "longitude": "4.669392",
    "latitude": "50.45255",
    "country_code": "be"
  },
  {
    "uri": "http://irail.be/stations/NMBS/008822533",
    "name": "Hambos",
    "alternative_fr": "",
    "alternative_nl": "",
    "alternative_de": "",
    "alternative_en": "",
    "longitude": "4.66301",
    "latitude": "50.944251",
    "country_code": "be"
  },
  {
    "uri": "http://irail.be/stations/NMBS/008842846",
    "name": "Hamoir",
    "alternative_fr": "",
    "alternative_nl": "",
    "alternative_de": "",
    "alternative_en": "",
    "longitude": "5.533561",
    "latitude": "50.428181",
    "country_code": "be"
  },
  {
    "uri": "http://irail.be/stations/NMBS/008832664",
    "name": "Hamont",
    "alternative_fr": "",
    "alternative_nl": "",
    "alternative_de": "",
    "alternative_en": "",
    "longitude": "5.543279",
    "latitude": "51.246424",
    "country_code": "be"
  },
  {
    "uri": "http://irail.be/stations/NMBS/008891165",
    "name": "Hansbeke",
    "alternative_fr": "",
    "alternative_nl": "",
    "alternative_de": "",
    "alternative_en": "",
    "longitude": "3.536212",
    "latitude": "51.073202",
    "country_code": "be"
  },
  {
    "uri": "http://irail.be/stations/NMBS/008884640",
    "name": "Harchies",
    "alternative_fr": "",
    "alternative_nl": "",
    "alternative_de": "",
    "alternative_en": "",
    "longitude": "3.698764",
    "latitude": "50.482565",
    "country_code": "be"
  },
  {
    "uri": "http://irail.be/stations/NMBS/008896115",
    "name": "Harelbeke",
    "alternative_fr": "",
    "alternative_nl": "",
    "alternative_de": "",
    "alternative_en": "",
    "longitude": "3.314008",
    "latitude": "50.85586",
    "country_code": "be"
  },
  {
    "uri": "http://irail.be/stations/NMBS/008811155",
    "name": "Haren",
    "alternative_fr": "",
    "alternative_nl": "",
    "alternative_de": "",
    "alternative_en": "",
    "longitude": "4.419978",
    "latitude": "50.888878",
    "country_code": "be"
  },
  {
    "uri": "http://irail.be/stations/NMBS/008811130",
    "name": "Haren-Sud/Haren-Zuid",
    "alternative_fr": "Haren-Sud",
    "alternative_nl": "Haren-Zuid",
    "alternative_de": "",
    "alternative_en": "",
    "longitude": "4.415357",
    "latitude": "50.889696",
    "country_code": "be"
  },
  {
    "uri": "http://irail.be/stations/NMBS/008831005",
    "name": "Hasselt",
    "alternative_fr": "",
    "alternative_nl": "",
    "alternative_de": "",
    "alternative_en": "",
    "longitude": "5.327627",
    "latitude": "50.930822",
    "country_code": "be"
  },
  {
    "uri": "http://irail.be/stations/NMBS/008843349",
    "name": "Haute-Flône",
    "alternative_fr": "",
    "alternative_nl": "",
    "alternative_de": "",
    "alternative_en": "",
    "longitude": "5.330333",
    "latitude": "50.55349",
    "country_code": "be"
  },
  {
    "uri": "http://irail.be/stations/NMBS/008731388",
    "name": "Haute-Picardie TGV",
    "alternative_fr": "",
    "alternative_nl": "",
    "alternative_de": "",
    "alternative_en": "",
    "longitude": "2.49565000",
    "latitude": "49.8589400",
    "country_code": "fr"
  },
  {
    "uri": "http://irail.be/stations/NMBS/008864832",
    "name": "Haversin",
    "alternative_fr": "",
    "alternative_nl": "",
    "alternative_de": "",
    "alternative_en": "",
    "longitude": "5.194371",
    "latitude": "50.249044",
    "country_code": "be"
  },
  {
    "uri": "http://irail.be/stations/NMBS/008881430",
    "name": "Havre",
    "alternative_fr": "",
    "alternative_nl": "",
    "alternative_de": "",
    "alternative_en": "",
    "longitude": "4.059987",
    "latitude": "50.470754",
    "country_code": "be"
  },
  {
    "uri": "http://irail.be/stations/NMBS/008400307",
    "name": "Heerlen",
    "alternative_fr": "",
    "alternative_nl": "",
    "alternative_de": "",
    "alternative_en": "",
    "longitude": "5.97457700",
    "latitude": "50.8909500",
    "country_code": "nl"
  },
  {
    "uri": "http://irail.be/stations/NMBS/008821519",
    "name": "Heide",
    "alternative_fr": "",
    "alternative_nl": "",
    "alternative_de": "",
    "alternative_en": "",
    "longitude": "4.460483",
    "latitude": "51.364623",
    "country_code": "be"
  },
  {
    "uri": "http://irail.be/stations/NMBS/008891645",
    "name": "Heist",
    "alternative_fr": "",
    "alternative_nl": "",
    "alternative_de": "",
    "alternative_en": "",
    "longitude": "3.239181",
    "latitude": "51.333979",
    "country_code": "be"
  },
  {
    "uri": "http://irail.be/stations/NMBS/008821832",
    "name": "Heist-op-den-Berg",
    "alternative_fr": "",
    "alternative_nl": "",
    "alternative_de": "",
    "alternative_en": "",
    "longitude": "4.708235",
    "latitude": "51.074146",
    "country_code": "be"
  },
  {
    "uri": "http://irail.be/stations/NMBS/008812153",
    "name": "Heizijde",
    "alternative_fr": "",
    "alternative_nl": "",
    "alternative_de": "",
    "alternative_en": "",
    "longitude": "4.156171",
    "latitude": "50.989593",
    "country_code": "be"
  },
  {
    "uri": "http://irail.be/stations/NMBS/008728606",
    "name": "Hellemmes",
    "alternative_fr": "",
    "alternative_nl": "",
    "alternative_de": "",
    "alternative_en": "",
    "longitude": "3.108892",
    "latitude": "50.626941",
    "country_code": "fr"
  },
  {
    "uri": "http://irail.be/stations/NMBS/008824224",
    "name": "Hemiksem",
    "alternative_fr": "",
    "alternative_nl": "",
    "alternative_de": "",
    "alternative_en": "",
    "longitude": "4.338293",
    "latitude": "51.136243",
    "country_code": "be"
  },
  {
    "uri": "http://irail.be/stations/NMBS/008883022",
    "name": "Hennuyères",
    "alternative_fr": "",
    "alternative_nl": "",
    "alternative_de": "",
    "alternative_en": "",
    "longitude": "4.175893",
    "latitude": "50.651005",
    "country_code": "be"
  },
  {
    "uri": "http://irail.be/stations/NMBS/008811288",
    "name": "Herent",
    "alternative_fr": "",
    "alternative_nl": "",
    "alternative_de": "",
    "alternative_en": "",
    "longitude": "4.672188",
    "latitude": "50.90353",
    "country_code": "be"
  },
  {
    "uri": "http://irail.be/stations/NMBS/008821717",
    "name": "Herentals",
    "alternative_fr": "",
    "alternative_nl": "",
    "alternative_de": "",
    "alternative_en": "",
    "longitude": "4.829535",
    "latitude": "51.181513",
    "country_code": "be"
  },
  {
    "uri": "http://irail.be/stations/NMBS/008844644",
    "name": "Hergenrath",
    "alternative_fr": "",
    "alternative_nl": "",
    "alternative_de": "",
    "alternative_en": "",
    "longitude": "6.041335",
    "latitude": "50.718209",
    "country_code": "be"
  },
  {
    "uri": "http://irail.be/stations/NMBS/008849023",
    "name": "Hergenrath-Frontiere",
    "alternative_fr": "",
    "alternative_nl": "",
    "alternative_de": "",
    "alternative_en": "",
    "longitude": "6.04126900",
    "latitude": "50.7189550",
    "country_code": "be"
  },
  {
    "uri": "http://irail.be/stations/NMBS/008895646",
    "name": "Herne",
    "alternative_fr": "",
    "alternative_nl": "",
    "alternative_de": "",
    "alternative_en": "",
    "longitude": "4.014573",
    "latitude": "50.723701",
    "country_code": "be"
  },
  {
    "uri": "http://irail.be/stations/NMBS/008885753",
    "name": "Herseaux",
    "alternative_fr": "",
    "alternative_nl": "",
    "alternative_de": "",
    "alternative_en": "",
    "longitude": "3.245959",
    "latitude": "50.713894",
    "country_code": "be"
  },
  {
    "uri": "http://irail.be/stations/NMBS/008841608",
    "name": "Herstal",
    "alternative_fr": "",
    "alternative_nl": "",
    "alternative_de": "",
    "alternative_en": "",
    "longitude": "5.622761",
    "latitude": "50.660911",
    "country_code": "be"
  },
  {
    "uri": "http://irail.be/stations/NMBS/008895430",
    "name": "Herzele",
    "alternative_fr": "",
    "alternative_nl": "",
    "alternative_de": "",
    "alternative_en": "",
    "longitude": "3.880616",
    "latitude": "50.89722",
    "country_code": "be"
  },
  {
    "uri": "http://irail.be/stations/NMBS/008015190",
    "name": "Herzogenrath",
    "alternative_fr": "",
    "alternative_nl": "",
    "alternative_de": "",
    "alternative_en": "",
    "longitude": "6.09440000",
    "latitude": "50.8709000",
    "country_code": "de"
  },
  {
    "uri": "http://irail.be/stations/NMBS/008832243",
    "name": "Heusden",
    "alternative_fr": "",
    "alternative_nl": "",
    "alternative_de": "",
    "alternative_en": "",
    "longitude": "5.281782",
    "latitude": "51.038207",
    "country_code": "be"
  },
  {
    "uri": "http://irail.be/stations/NMBS/008822459",
    "name": "Hever",
    "alternative_fr": "",
    "alternative_nl": "",
    "alternative_de": "",
    "alternative_en": "",
    "longitude": "4.537637",
    "latitude": "50.997791",
    "country_code": "be"
  },
  {
    "uri": "http://irail.be/stations/NMBS/008833126",
    "name": "Heverlee",
    "alternative_fr": "",
    "alternative_nl": "",
    "alternative_de": "",
    "alternative_en": "",
    "longitude": "4.6952",
    "latitude": "50.86253",
    "country_code": "be"
  },
  {
    "uri": "http://irail.be/stations/NMBS/008895422",
    "name": "Hillegem",
    "alternative_fr": "",
    "alternative_nl": "",
    "alternative_de": "",
    "alternative_en": "",
    "longitude": "3.857469",
    "latitude": "50.891296",
    "country_code": "be"
  },
  {
    "uri": "http://irail.be/stations/NMBS/008824158",
    "name": "Hoboken-Polder",
    "alternative_fr": "",
    "alternative_nl": "",
    "alternative_de": "",
    "alternative_en": "",
    "longitude": "4.347785",
    "latitude": "51.182699",
    "country_code": "be"
  },
  {
    "uri": "http://irail.be/stations/NMBS/008811460",
    "name": "Hoeilaart",
    "alternative_fr": "",
    "alternative_nl": "",
    "alternative_de": "",
    "alternative_en": "",
    "longitude": "4.467414",
    "latitude": "50.760161",
    "country_code": "be"
  },
  {
    "uri": "http://irail.be/stations/NMBS/008822277",
    "name": "Hofstade",
    "alternative_fr": "",
    "alternative_nl": "",
    "alternative_de": "",
    "alternative_en": "",
    "longitude": "4.498336",
    "latitude": "50.988658",
    "country_code": "be"
  },
  {
    "uri": "http://irail.be/stations/NMBS/008814159",
    "name": "Holleken",
    "alternative_fr": "",
    "alternative_nl": "",
    "alternative_de": "",
    "alternative_en": "",
    "longitude": "4.353952",
    "latitude": "50.767631",
    "country_code": "be"
  },
  {
    "uri": "http://irail.be/stations/NMBS/008200710",
    "name": "Hollerich",
    "alternative_fr": "",
    "alternative_nl": "",
    "alternative_de": "",
    "alternative_en": "",
    "longitude": "6.12093800",
    "latitude": "49.5951600",
    "country_code": "lu"
  },
  {
    "uri": "http://irail.be/stations/NMBS/008842655",
    "name": "Hony",
    "alternative_fr": "",
    "alternative_nl": "",
    "alternative_de": "",
    "alternative_en": "",
    "longitude": "5.573563",
    "latitude": "50.539917",
    "country_code": "be"
  },
  {
    "uri": "http://irail.be/stations/NMBS/008886553",
    "name": "Houraing",
    "alternative_fr": "",
    "alternative_nl": "",
    "alternative_de": "",
    "alternative_en": "",
    "longitude": "3.835175",
    "latitude": "50.703062",
    "country_code": "be"
  },
  {
    "uri": "http://irail.be/stations/NMBS/008871829",
    "name": "Hourpes",
    "alternative_fr": "",
    "alternative_nl": "",
    "alternative_de": "",
    "alternative_en": "",
    "longitude": "4.308736",
    "latitude": "50.363692",
    "country_code": "be"
  },
  {
    "uri": "http://irail.be/stations/NMBS/008863842",
    "name": "Houyet",
    "alternative_fr": "",
    "alternative_nl": "",
    "alternative_de": "",
    "alternative_en": "",
    "longitude": "5.006074",
    "latitude": "50.189868",
    "country_code": "be"
  },
  {
    "uri": "http://irail.be/stations/NMBS/008821337",
    "name": "Hove",
    "alternative_fr": "",
    "alternative_nl": "",
    "alternative_de": "",
    "alternative_en": "",
    "longitude": "4.465157",
    "latitude": "51.154114",
    "country_code": "be"
  },
  {
    "uri": "http://irail.be/stations/NMBS/008814415",
    "name": "Huizingen",
    "alternative_fr": "",
    "alternative_nl": "",
    "alternative_de": "",
    "alternative_en": "",
    "longitude": "4.266487",
    "latitude": "50.7519",
    "country_code": "be"
  },
  {
    "uri": "http://irail.be/stations/NMBS/008843307",
    "name": "Huy",
    "alternative_fr": "",
    "alternative_nl": "Hoei",
    "alternative_de": "",
    "alternative_en": "",
    "longitude": "5.234211",
    "latitude": "50.527242",
    "country_code": "be"
  },
  {
    "uri": "http://irail.be/stations/NMBS/008003040",
    "name": "Idar-Oberstein",
    "alternative_fr": "",
    "alternative_nl": "",
    "alternative_de": "",
    "alternative_en": "",
    "longitude": "7.321228",
    "latitude": "49.699371",
    "country_code": "de"
  },
  {
    "uri": "http://irail.be/stations/NMBS/008895844",
    "name": "Iddergem",
    "alternative_fr": "",
    "alternative_nl": "",
    "alternative_de": "",
    "alternative_en": "",
    "longitude": "4.06849",
    "latitude": "50.876886",
    "country_code": "be"
  },
  {
    "uri": "http://irail.be/stations/NMBS/008895729",
    "name": "Idegem",
    "alternative_fr": "",
    "alternative_nl": "",
    "alternative_de": "",
    "alternative_en": "",
    "longitude": "3.921553",
    "latitude": "50.801871",
    "country_code": "be"
  },
  {
    "uri": "http://irail.be/stations/NMBS/008896503",
    "name": "Ieper",
    "alternative_fr": "Ypres",
    "alternative_nl": "",
    "alternative_de": "Ypern",
    "alternative_en": "Ypres",
    "longitude": "2.876593",
    "latitude": "50.847402",
    "country_code": "be"
  },
  {
    "uri": "http://irail.be/stations/NMBS/008896925",
    "name": "Ingelmunster",
    "alternative_fr": "",
    "alternative_nl": "",
    "alternative_de": "",
    "alternative_en": "",
    "longitude": "3.255416",
    "latitude": "50.914326",
    "country_code": "be"
  },
  {
    "uri": "http://irail.be/stations/NMBS/008896909",
    "name": "Izegem",
    "alternative_fr": "",
    "alternative_nl": "",
    "alternative_de": "",
    "alternative_en": "",
    "longitude": "3.212088",
    "latitude": "50.921149",
    "country_code": "be"
  },
  {
    "uri": "http://irail.be/stations/NMBS/008863115",
    "name": "Jambes",
    "alternative_fr": "",
    "alternative_nl": "",
    "alternative_de": "",
    "alternative_en": "",
    "longitude": "4.876144",
    "latitude": "50.454843",
    "country_code": "be"
  },
  {
    "uri": "http://irail.be/stations/NMBS/008863354",
    "name": "Jambes-Est",
    "alternative_fr": "",
    "alternative_nl": "",
    "alternative_de": "",
    "alternative_en": "",
    "longitude": "4.880261",
    "latitude": "50.454798",
    "country_code": "be"
  },
  {
    "uri": "http://irail.be/stations/NMBS/008871175",
    "name": "Jamioulx",
    "alternative_fr": "",
    "alternative_nl": "",
    "alternative_de": "",
    "alternative_en": "",
    "longitude": "4.411294",
    "latitude": "50.352896",
    "country_code": "be"
  },
  {
    "uri": "http://irail.be/stations/NMBS/008884566",
    "name": "Jemappes",
    "alternative_fr": "",
    "alternative_nl": "",
    "alternative_de": "",
    "alternative_en": "",
    "longitude": "3.885587",
    "latitude": "50.452577",
    "country_code": "be"
  },
  {
    "uri": "http://irail.be/stations/NMBS/008843158",
    "name": "Jemeppe-sur-Meuse",
    "alternative_fr": "",
    "alternative_nl": "",
    "alternative_de": "",
    "alternative_en": "",
    "longitude": "5.497874",
    "latitude": "50.618446",
    "country_code": "be"
  },
  {
    "uri": "http://irail.be/stations/NMBS/008874724",
    "name": "Jemeppe-sur-Sambre",
    "alternative_fr": "",
    "alternative_nl": "",
    "alternative_de": "",
    "alternative_en": "",
    "longitude": "4.662632",
    "latitude": "50.45095",
    "country_code": "be"
  },
  {
    "uri": "http://irail.be/stations/NMBS/008812047",
    "name": "Jette",
    "alternative_fr": "",
    "alternative_nl": "",
    "alternative_de": "",
    "alternative_en": "",
    "longitude": "4.32622",
    "latitude": "50.880833",
    "country_code": "be"
  },
  {
    "uri": "http://irail.be/stations/NMBS/008881166",
    "name": "Jurbeke",
    "alternative_fr": "Jurbise",
    "alternative_nl": "",
    "alternative_de": "Jurbise",
    "alternative_en": "Jurbise",
    "longitude": "3.910694",
    "latitude": "50.530496",
    "country_code": "be"
  },
  {
    "uri": "http://irail.be/stations/NMBS/008844321",
    "name": "Juslenville",
    "alternative_fr": "",
    "alternative_nl": "",
    "alternative_de": "",
    "alternative_en": "",
    "longitude": "5.809935",
    "latitude": "50.544717",
    "country_code": "be"
  },
  {
    "uri": "http://irail.be/stations/NMBS/008821444",
    "name": "Kalmthout",
    "alternative_fr": "",
    "alternative_nl": "",
    "alternative_de": "",
    "alternative_en": "",
    "longitude": "4.46682",
    "latitude": "51.391177",
    "country_code": "be"
  },
  {
    "uri": "http://irail.be/stations/NMBS/008822053",
    "name": "Kapelle-op-den-Bos",
    "alternative_fr": "",
    "alternative_nl": "",
    "alternative_de": "",
    "alternative_en": "",
    "longitude": "4.359121",
    "latitude": "51.010843",
    "country_code": "be"
  },
  {
    "uri": "http://irail.be/stations/NMBS/008821535",
    "name": "Kapellen",
    "alternative_fr": "",
    "alternative_nl": "",
    "alternative_de": "",
    "alternative_en": "",
    "longitude": "4.432661",
    "latitude": "51.313528",
    "country_code": "be"
  },
  {
    "uri": "http://irail.be/stations/NMBS/008200130",
    "name": "Kautebaach",
    "alternative_fr": "Kautenbach",
    "alternative_nl": "Kautenbach",
    "alternative_de": "Kautenbach",
    "alternative_en": "",
    "longitude": "6.020003",
    "latitude": "49.952777",
    "country_code": "lu"
  },
  {
    "uri": "http://irail.be/stations/NMBS/008821659",
    "name": "Kessel",
    "alternative_fr": "",
    "alternative_nl": "",
    "alternative_de": "",
    "alternative_en": "",
    "longitude": "4.618459",
    "latitude": "51.151057",
    "country_code": "be"
  },
  {
    "uri": "http://irail.be/stations/NMBS/008832375",
    "name": "Kiewit",
    "alternative_fr": "",
    "alternative_nl": "",
    "alternative_de": "",
    "alternative_en": "",
    "longitude": "5.350226",
    "latitude": "50.954841",
    "country_code": "be"
  },
  {
    "uri": "http://irail.be/stations/NMBS/008821451",
    "name": "Kijkuit",
    "alternative_fr": "",
    "alternative_nl": "",
    "alternative_de": "",
    "alternative_en": "",
    "longitude": "4.467315",
    "latitude": "51.378664",
    "country_code": "be"
  },